nombre_col,codigo_postal,prom_valor_unitario_suelo,latitud,longitud,alcaldia,estado
EL ZACATON,14734,274.53,19.26592297,-99.24029244,Tlalpan,CDMX
VILLA OLIMPICA LIBERADOR MIGUEL HIDALGO (U HAB),14020,10689.20628,19.29699119,-99.18709909,Tlalpan,CDMX
ISIDRO FABELA II (ORIENTE),14049,2036.951341,19.300506,-99.17042535,Tlalpan,CDMX
PUEBLO QUIETO,14050,2840.89931,19.29909415,-99.16042165,Tlalpan,CDMX
SAN PEDRO APOSTOL (BARR),14070,2252.085895,19.29610104,-99.173931,Tlalpan,CDMX
ZAPOTE-LUIS DONALDO COLOSIO (U HABS),14070,3252.847966,19.3001705,-99.17860711,Tlalpan,CDMX
SECCION XVI,14080,2953.798202,19.29150145,-99.15745976,Tlalpan,CDMX
NIO JESUS (BARR),14090,2450,19.28617194,-99.16163805,Tlalpan,CDMX
EMILIO PORTES GIL PEMEX PICACHO (U HAB),14200,7213.66,19.30169256,-99.21958146,Tlalpan,CDMX
CHICHICASPATL,14201,731.67,19.27566121,-99.24326639,Tlalpan,CDMX
PARQUES DEL PEDREGAL,14210,9396.702381,19.30038959,-99.19193311,Tlalpan,CDMX
CUCHILLA DE PADIERNA,14240,1053.035881,19.27605,-99.2186031,Tlalpan,CDMX
LOMAS DE PADIERNA (AMPL),14240,4766.74,19.29699623,-99.22009923,Tlalpan,CDMX
LOMAS DEL PEDREGAL,14240,996.73,19.27389664,-99.21831174,Tlalpan,CDMX
CONJUNTO HABITACIONAL PEDREGAL DEL LAGO,14260,4952.23,19.30905969,-99.22446628,Tlalpan,CDMX
LOMAS DE  PADIERNA II,14260,1703.708334,19.29337288,-99.22101222,Tlalpan,CDMX
CONDOMINIO DEL BOSQUE (FRACC)-BOSQUE DE TLALPAN,14266,6765.439567,19.29354454,-99.19028145,Tlalpan,CDMX
ROMULO SANCHEZ-SAN FERNANDO (BARR)-PEA POBRE,14269,3247.690283,19.29696031,-99.17902992,Tlalpan,CDMX
POPULAR STA TERESA,14280,1699.51,19.30104522,-99.22410153,Tlalpan,CDMX
HEROES DE PADIERNA I,14300,1427.1,19.28575792,-99.22412312,Tlalpan,CDMX
BELISARIO DOMINGUEZ,14310,2450,19.29028594,-99.15590122,Tlalpan,CDMX
ISIDRO  FABELA (AMPL),14330,2023.68,19.29806347,-99.17132726,Tlalpan,CDMX
TENORIOS INFONAVIT 1 Y 2 (U HAB),14330,4394.76,19.29691755,-99.11741812,Tlalpan,CDMX
UNIDADES HABITACIONALES DE TENORIOS,14330,4394.76,19.2952792,-99.11673909,Tlalpan,CDMX
CONJUNTO URBANO CUEMANCO (U HAB),14336,5756.117072,19.29709272,-99.10539591,Tlalpan,CDMX
TORIELLO GUERRA,14350,2683.873063,19.29587238,-99.16446886,Tlalpan,CDMX
PRADO COAPA 2A SECCION,14357,3036.598799,19.29864252,-99.13289752,Tlalpan,CDMX
VERGEL DE COYOACAN-VERGEL DEL SUR,14360,2926.667047,19.30222546,-99.13739581,Tlalpan,CDMX
JARDINES COAPA-BELISARIO DOMINGUEZ,14370,2925.04,19.30396618,-99.13331078,Tlalpan,CDMX
VILLA DEL PUENTE FOVISSSTE  (U HAB),14370,3225.243836,19.29638053,-99.1062793,Tlalpan,CDMX
AMSA,14380,3310.012353,19.28509467,-99.13943468,Tlalpan,CDMX
SAN BARTOLO EL CHICO,14380,2289.957442,19.28488324,-99.13098775,Tlalpan,CDMX
RANCHO LOS COLORINES (FRACC),14386,2624.01007,19.28816967,-99.13756485,Tlalpan,CDMX
EX HACIENDA SAN JUAN DE DIOS,14387,2787.394436,19.2877584,-99.13162099,Tlalpan,CDMX
RINCONADA (U HAB),14387,2789.74,19.28634003,-99.13510594,Tlalpan,CDMX
HACIENDA SAN JUAN-RINCON DE SAN JUAN-CHIMALI,14389,3025.058646,19.29085123,-99.14372599,Tlalpan,CDMX
ARBOLEDAS DEL SUR,14390,2616.89,19.29221828,-99.13819825,Tlalpan,CDMX
GRANJAS COAPA ORIENTE,14390,4093.301303,19.29795965,-99.10805341,Tlalpan,CDMX
NARCISO MENDOZA-VILLA COAPA SUPER MANZANA 1 (U HAB),14390,4191.071013,19.29217522,-99.12876012,Tlalpan,CDMX
NARCISO MENDOZA-VILLA COAPA SUPER MANZANA 2 (U HAB),14390,3727.395264,19.28952362,-99.12743131,Tlalpan,CDMX
NARCISO MENDOZA-VILLA COAPA SUPER MANZANA 3 (U HAB),14390,3707.48,19.28761182,-99.12407659,Tlalpan,CDMX
NARCISO MENDOZA-VILLA COAPA SUPER MANZANA 6 (U HAB),14390,3720.974479,19.29255838,-99.12118325,Tlalpan,CDMX
NARCISO MENDOZA-VILLA COAPA SUPER MANZANA 7 (U HAB),14390,3906.738715,19.29058682,-99.12372087,Tlalpan,CDMX
PRADO COAPA 3A SECCION-POTRERO ACOXPA,14390,2679.537612,19.29285757,-99.13296531,Tlalpan,CDMX
SAUZALES CEBADALES (U HAB),14390,5247.701136,19.29810807,-99.11076899,Tlalpan,CDMX
TRES FUENTES (U HAB),14390,2795.98,19.29825151,-99.1219379,Tlalpan,CDMX
VILLA COAPA (RDCIAL),14390,2795.98,19.2899589,-99.11913992,Tlalpan,CDMX
NUEVA ORIENTAL COAPA-EX HACIENDA COAPA,14397,3273.942787,19.2979382,-99.12855487,Tlalpan,CDMX
NARCISO MENDOZA VILLA COAPA SUPERMANZANA 8 (U HAB),14399,2837.084958,19.29569869,-99.12038184,Tlalpan,CDMX
REAL DEL SUR-VILLAS DEL SUR-RESIDENCIAL ACOXPA,14399,3085.478347,19.29983715,-99.12280731,Tlalpan,CDMX
RINCON LAS HADAS-VILLA ROYALE-FUENTES Y ARCONADA COAPA,14399,3155.352435,19.2961877,-99.12338688,Tlalpan,CDMX
PEDREGAL DE SN NICOLAS 2A SECC,14400,1304.324776,19.28879965,-99.23510963,Tlalpan,CDMX
EL DIVISADERO,14408,730.32,19.25331267,-99.15895491,Tlalpan,CDMX
NUEVO RENACIMIENTO DE AXALCO,14408,730.32,19.25550323,-99.16138028,Tlalpan,CDMX
PROGRESO TLALPAN,14408,730.32,19.25292981,-99.15679187,Tlalpan,CDMX
JARDINES DEL AJUSCO,14410,1706.379726,19.2870162,-99.21423952,Tlalpan,CDMX
LA FAMA,14410,3786.447019,19.29104574,-99.17752588,Tlalpan,CDMX
TLALPAN CENTRO,14410,3792.780791,19.28731886,-99.17126989,Tlalpan,CDMX
CALVARIO CAMISETAS,14420,3530.425976,19.28851268,-99.17833842,Tlalpan,CDMX
FLORESTA-PRADO-VERGEL COAPA,14420,2979.342574,19.30342893,-99.12908282,Tlalpan,CDMX
"MESA LOS HORNOS, TEXCALTENCO",14429,1809.71,19.27492806,-99.18469049,Tlalpan,CDMX
COAPA-VILLA CUEMANCO,14430,2895.936204,19.29362493,-99.11099545,Tlalpan,CDMX
GRANJAS COAPA,14430,4546.269066,19.29581918,-99.11392084,Tlalpan,CDMX
IGNACIO CHAVEZ (U HAB),14430,2948.441725,19.29708277,-99.10428997,Tlalpan,CDMX
RESIDENCIAL INSURGENTES SUR (U HAB),14430,2357.936779,19.27891724,-99.17237447,Tlalpan,CDMX
MIGUEL HIDALGO,14440,2620.491756,19.28651997,-99.18596175,Tlalpan,CDMX
SANTISIMA TRINIDAD,14449,1809.71,19.27198816,-99.18598058,Tlalpan,CDMX
JARDINES EN LA MONTAA,14450,8986.96822,19.30107075,-99.2037663,Tlalpan,CDMX
LA  LONJA,14470,2349.645665,19.29123932,-99.1804253,Tlalpan,CDMX
LOMAS DE TEXCALATLACO,14476,351.59,19.23791624,-99.15118575,Tlalpan,CDMX
ORIENTE (AMPL),14476,730.32,19.25236693,-99.1620407,Tlalpan,CDMX
PLAN DE AYALA,14476,548.117907,19.23907478,-99.14898654,Tlalpan,CDMX
LA PALMA,14479,734.5786861,19.24987853,-99.15708565,Tlalpan,CDMX
VIVEROS DE COACTETLAN,14479,737.5062025,19.24428211,-99.15362715,Tlalpan,CDMX
SAN MIGUEL TEHUISCO-LOS ANGELES-AYOMETITLA,14500,274.53,19.21147635,-99.15609573,Tlalpan,CDMX
LOS PASTORES,14550,187.49,19.19896061,-99.14990123,Tlalpan,CDMX
PEDREGAL DE SN NICOLAS 3A SECC,14600,1307.03,19.28420811,-99.23658971,Tlalpan,CDMX
TORRES DE PADIERNA,14600,1657.940759,19.28101974,-99.22823182,Tlalpan,CDMX
ISSSFAM No. 1 (U HAB)-VILLA TLALPAN,14630,3010.120066,19.27744962,-99.16200473,Tlalpan,CDMX
PEDREGAL DE STA URSULA XITLA,14630,1660.865011,19.27365912,-99.17822014,Tlalpan,CDMX
TLALCOLIGIA,14640,2044.591134,19.27587608,-99.17143435,Tlalpan,CDMX
CLUB DE GOLF MEXICO-SAN BUENAVENTURA,14645,3501.609754,19.27824993,-99.15732624,Tlalpan,CDMX
COLINAS DEL BOSQUE-LAS TORTOLAS,14648,3052.217696,19.27747337,-99.1492407,Tlalpan,CDMX
EJIDOS DE SAN PEDRO MARTIR I (NORTE),14650,1694.968372,19.27210201,-99.15683265,Tlalpan,CDMX
FOVISSSTE SAN PEDRO MARTIR ( U HAB),14650,2697.85,19.274454,-99.16081154,Tlalpan,CDMX
LA JOYA,14650,2461.57219,19.28074345,-99.16465317,Tlalpan,CDMX
LOS VOLCANES,14650,1551.259942,19.26989433,-99.17492854,Tlalpan,CDMX
MOVIMIENTO ORGANIZADO DE TLALPAN-EL MIRADOR (RNCDA),14650,1786.39,19.26678342,-99.1528576,Tlalpan,CDMX
TECORRAL,14650,875.1419259,19.25962204,-99.16645566,Tlalpan,CDMX
VILLA LAZARO CARDENAS,14650,2529.748318,19.29694789,-99.14025337,Tlalpan,CDMX
ZACATIENDA,14650,730.32,19.25808429,-99.16407162,Tlalpan,CDMX
DOLORES TLALI,14654,1037.964,19.24209934,-99.1464322,Tlalpan,CDMX
AMPLIACION MIGUEL HIDALGO 4A SECC,14657,1021.547226,19.27297696,-99.21020052,Tlalpan,CDMX
ATOCPA SUR,14657,679.26,19.25440104,-99.18542385,Tlalpan,CDMX
"AYOCATITLA,  ASUNCIN",14657,274.53,19.18686409,-99.14588831,Tlalpan,CDMX
BOSQUE DE TEPEXIMILPA,14657,947.65,19.27503177,-99.18828741,Tlalpan,CDMX
CRUZ DEL FAROL,14657,897.579281,19.26945466,-99.21129104,Tlalpan,CDMX
DIAMANTE,14657,947.65,19.27128309,-99.19266363,Tlalpan,CDMX
EL ARENAL,14657,514.4148,19.20533519,-99.13906476,Tlalpan,CDMX
FUENTES BROTANTES MIGUEL HIDALGO (U HAB),14657,2194.062107,19.28185897,-99.18544606,Tlalpan,CDMX
LA GUADALUPANA,14657,274.53,19.19619091,-99.14990414,Tlalpan,CDMX
LA LIBERTAD - IXTLAHUACA,14657,274.53,19.19123127,-99.14846857,Tlalpan,CDMX
LOMA BONITA-AMPLIACION TEPEXIMILPA,14657,941.8154348,19.27052282,-99.1922805,Tlalpan,CDMX
MIRADOR 2A y 3A SECC,14657,827.5209836,19.27017578,-99.1840766,Tlalpan,CDMX
PARAJE 38,14657,686.67,19.26508081,-99.20830836,Tlalpan,CDMX
SN JUAN  TEPEXIMILPA (AMPL),14657,947.65,19.27266966,-99.19276051,Tlalpan,CDMX
SN JUAN TEPEXIMILPA,14657,947.65,19.27331091,-99.19013904,Tlalpan,CDMX
TEPETONGO,14657,1752.969266,19.27109369,-99.18826953,Tlalpan,CDMX
TEZONTITLA,14657,274.53,19.20912881,-99.15233297,Tlalpan,CDMX
VERANO,14657,679.26,19.26507991,-99.20130468,Tlalpan,CDMX
XAXALCO,14657,274.53,19.19355638,-99.14309808,Tlalpan,CDMX
XAXALIPAC,14657,274.53,19.18915919,-99.14424124,Tlalpan,CDMX
MIRADOR 1A SECC,14658,1210.08,19.2692296,-99.17899012,Tlalpan,CDMX
MA ESTHER ZUNO DE ECHEVERRIA-TLALPUENTE,14659,947.3454749,19.25175276,-99.18347372,Tlalpan,CDMX
SAN ANDRES TOTOLTEPEC (PBLO),14659,1230.295153,19.25091951,-99.17035126,Tlalpan,CDMX
TETENCO (PJE),14659,1478.488434,19.26355729,-99.18029403,Tlalpan,CDMX
TLALMILLE,14659,730.7863043,19.25926223,-99.18601913,Tlalpan,CDMX
OCOTLA - OCOTLA CHICO,14700,274.53,19.21302926,-99.16682765,Tlalpan,CDMX
LA MAGDALENA PETLACALCO (PBLO),14710,543.9569146,19.23396677,-99.17948934,Tlalpan,CDMX
LOMAS HIDALGO,14720,931.31,19.27431602,-99.21501768,Tlalpan,CDMX
SANTA URSULA XITLA,14720,3180.798242,19.28051003,-99.17889655,Tlalpan,CDMX
CULTURA MAYA,14730,1276.87,19.27609537,-99.22300709,Tlalpan,CDMX
LOS  ENCINOS,14730,1276.87,19.27749891,-99.22723763,Tlalpan,CDMX
SAN LORENZO HUIPULCO,14730,2565.952813,19.29494132,-99.15040451,Tlalpan,CDMX
LA PRIMAVERA,14734,680.2001935,19.26693484,-99.20267747,Tlalpan,CDMX
PEDREGAL DE SN NICOLAS 4A SECC II,14735,1283.84,19.27898267,-99.23318382,Tlalpan,CDMX
LOMAS DE CUILOTEPEC,14737,848.53,19.27092951,-99.23234732,Tlalpan,CDMX
BOSQUES DEL PEDREGAL,14738,848.89622,19.27203298,-99.23911758,Tlalpan,CDMX
FUENTES DEL PEDREGAL,14738,5336.174726,19.30504319,-99.22535441,Tlalpan,CDMX
PEDREGAL DE SN NICOLAS 4A SECC I,14738,999.628663,19.27729081,-99.23982839,Tlalpan,CDMX
VISTAS DEL PEDREGAL,14738,848.53,19.27233151,-99.23474184,Tlalpan,CDMX
LOMAS DE  PADIERNA I,14740,1500.45,19.29394979,-99.2273543,Tlalpan,CDMX
2 DE OCTUBRE,14748,854.6881688,19.27226763,-99.23067883,Tlalpan,CDMX
BELVEDERE,14748,931.31,19.26931138,-99.22702401,Tlalpan,CDMX
LOMAS ALTAS DE PADIERNA SUR,14748,931.31,19.27315454,-99.2262846,Tlalpan,CDMX
CHIMILLI,14749,931.31,19.26962455,-99.21807021,Tlalpan,CDMX
MIRADOR I,14749,931.31,19.27131807,-99.21939779,Tlalpan,CDMX
MIRADOR II,14749,931.31,19.27022962,-99.2231328,Tlalpan,CDMX
HEROES DE 1910,14760,305.1988,19.24566291,-99.23637496,Tlalpan,CDMX
LOMAS DE TEPEMECATL,14760,326.8063636,19.24073262,-99.23874751,Tlalpan,CDMX
SAN MIGUEL AJUSCO (PBLO),14780,543.2021313,19.22747192,-99.20190688,Tlalpan,CDMX
JARDINES DE SAN JUAN,14830,412.5821387,19.21139903,-99.18720143,Tlalpan,CDMX
SANTO TOMAS AJUSCO (PBLO),14839,564.8456019,19.21827803,-99.20676232,Tlalpan,CDMX
CANTERA PUENTE DE PIEDRA,14900,2558.823699,19.2991218,-99.16447213,Tlalpan,CDMX
PARRES EL GUARDA (PBLO),14900,237.9637607,19.13545631,-99.17357847,Tlalpan,CDMX
PEDREGAL DE SN NICOLAS 1A SECC,14900,1152.485331,19.29360959,-99.23523987,Tlalpan,CDMX
SAN MIGUEL TOXIAC,14900,187.49,19.20671416,-99.15506153,Tlalpan,CDMX
PEDREGAL DE LAS AGUILAS,14439,1586.24,19.27187085,-99.17561862,Tlalpan,CDMX
AMPLIACION MIGUEL HIDALGO 2A SECC,14250,2091.01353,19.28183907,-99.1973637,Tlalpan,CDMX
JUVENTUD UNIDA,14647,1786.39,19.26878507,-99.15296322,Tlalpan,CDMX
ARENAL PUERTA TEPEPAN,14610,3651.08,19.282982,-99.14426953,Tlalpan,CDMX
VALLE ESCONDIDO,14600,3101.744755,19.27860569,-99.14362415,Tlalpan,CDMX
LA TORTUGA XOLALPA-HCO COLEGIO MILITAR,14653,1548.988684,19.26652487,-99.14700715,Tlalpan,CDMX
VALLE DE TEPEPAN,14646,1962.595758,19.27237367,-99.14580896,Tlalpan,CDMX
HEROES DE PADIERNA II,14200,1427.1,19.28060693,-99.21982914,Tlalpan,CDMX
COAPA 2A SECCION-RAMOS MILLAN,14357,3427.677115,19.29967499,-99.11805149,Tlalpan,CDMX
HUESO PERIFERICO-ISSSFAM NO. 7 (U HABS),14338,2952.437039,19.29733866,-99.10342202,Tlalpan,CDMX
FUENTES Y PEDREGAL DE TEPEPAN,14643,1771.522149,19.27009709,-99.14988323,Tlalpan,CDMX
LA MAGUEYERA,14654,790.0028571,19.24454544,-99.14593671,Tlalpan,CDMX
SAN MIGUEL  XICALCO (PBLO),14490,389.147459,19.23467221,-99.16430712,Tlalpan,CDMX
TEPETLICA EL ALTO-3 DE MAYO,14470,234.9178571,19.2365259,-99.14713484,Tlalpan,CDMX
VALLE VERDE,14655,497.6538362,19.24669337,-99.14274262,Tlalpan,CDMX
SAN PEDRO MARTIR (PBLO),14650,1446.752517,19.26628111,-99.16882092,Tlalpan,CDMX
EJIDOS DE SAN PEDRO MARTIR II (SUR),14640,1654.641067,19.26757345,-99.1585622,Tlalpan,CDMX
MIRADOR DEL VALLE,14658,1099.59171,19.25634326,-99.1823338,Tlalpan,CDMX
ARENAL GUADALUPE TLALPAN,14389,3433.288712,19.28614765,-99.14588468,Tlalpan,CDMX
SAN MIGUEL TOPILEJO (PBLO),14500,512.1666246,19.20025293,-99.14399055,Tlalpan,CDMX
ISIDRO FABELA I (PONIENTE),14030,2077.113385,19.30093407,-99.176414,Tlalpan,CDMX
AMPLIACION MIGUEL HIDALGO 3A SECC,14250,1963.538258,19.28024009,-99.20635451,Tlalpan,CDMX
