nombre_col,codigo_postal,prom_valor_unitario_suelo,latitud,longitud,alcaldia,estado
15 DE AGOSTO,7880,2425.71,19.48487485,-99.10704528,Gustavo A. Madero,CDMX
25 DE JULIO,7570,1833.008176,19.49565238,-99.08147544,Gustavo A. Madero,CDMX
51 LEGISLATURA,7460,2145.412609,19.48352257,-99.09307167,Gustavo A. Madero,CDMX
6 DE JUNIO,7788,781.7716822,19.55060371,-99.12587046,Gustavo A. Madero,CDMX
7 DE NOVIEMBRE,7840,2126.505874,19.45957128,-99.11975349,Gustavo A. Madero,CDMX
ACUEDUCTO DE GUADALUPE (RDCIAL),7270,3093.31,19.5235893,-99.14979428,Gustavo A. Madero,CDMX
ACUEDUCTO DE GUADALUPE (U HAB),7279,3615.738464,19.52697053,-99.1505314,Gustavo A. Madero,CDMX
AHUEHUETES,7530,711.6815449,19.54601626,-99.13122056,Gustavo A. Madero,CDMX
AIDEE SOLS CRDENAS-MATAS ROMERO (U HAB),7280,1191.33,19.53356919,-99.14599881,Gustavo A. Madero,CDMX
ARAGON INGUARAN,7880,1981.83,19.47073691,-99.10740727,Gustavo A. Madero,CDMX
ARAGON LA VILLA (ARAGON),7940,2148.535759,19.47961869,-99.11503691,Gustavo A. Madero,CDMX
ARBOLEDAS DE CUAUTEPEC,7240,525.625509,19.56117933,-99.1250456,Gustavo A. Madero,CDMX
ARBOLEDAS DE CUAUTEPEC (AMPL),7750,539.7326437,19.56537224,-99.12570825,Gustavo A. Madero,CDMX
ARROYO GUADALUPE (U HAB),7720,2747.95,19.51084074,-99.13671126,Gustavo A. Madero,CDMX
BELISARIO DOMINGUEZ,7890,1981.83,19.46267915,-99.11085419,Gustavo A. Madero,CDMX
BENITO JUAREZ,7290,944.33,19.53249945,-99.13917465,Gustavo A. Madero,CDMX
BENITO JUAREZ (AMPL),7259,883.2521607,19.53496056,-99.13806116,Gustavo A. Madero,CDMX
BONDOJITO,7860,1981.83,19.46676264,-99.11089516,Gustavo A. Madero,CDMX
C T M ARAGON (U),7990,2233.44,19.45291587,-99.05617555,Gustavo A. Madero,CDMX
C T M ARAGON AMPLIACION (U),7999,2233.44,19.45539975,-99.05333891,Gustavo A. Madero,CDMX
CAMINO A SAN JUAN DE ARAGON (PBLO),7969,2252.96,19.46827618,-99.08929972,Gustavo A. Madero,CDMX
CAMPESTRE ARAGON I,7930,2041.86,19.48792994,-99.07880856,Gustavo A. Madero,CDMX
CAMPESTRE ARAGON II,7960,2041.86,19.48310728,-99.08112239,Gustavo A. Madero,CDMX
CAPULTITLAN,7770,2611.56,19.47816145,-99.13320299,Gustavo A. Madero,CDMX
CASAS ALEMAN (AMPL) I,7960,1993.89,19.47729809,-99.08156877,Gustavo A. Madero,CDMX
CASAS ALEMAN (AMPL) II,7969,1993.89,19.47841696,-99.08680023,Gustavo A. Madero,CDMX
CASTILLO CHICO,7258,999.1610316,19.54093434,-99.13610288,Gustavo A. Madero,CDMX
CASTILLO GRANDE,7290,963.7799762,19.53806776,-99.1383248,Gustavo A. Madero,CDMX
CASTILLO GRANDE (AMPL),7258,734.45,19.53675795,-99.13685638,Gustavo A. Madero,CDMX
CERRO PRIETO,7960,1981.83,19.45271672,-99.09828707,Gustavo A. Madero,CDMX
CHALMA DE GUADALUPE I,7210,985.2473129,19.55538803,-99.15091227,Gustavo A. Madero,CDMX
CHALMA DE GUADALUPE II,7230,985.96,19.55000993,-99.15431081,Gustavo A. Madero,CDMX
CHURUBUSCO TEPEYAC,7730,2959.373514,19.48727146,-99.13781711,Gustavo A. Madero,CDMX
COCOYOTES,7190,585.93,19.54826579,-99.13079116,Gustavo A. Madero,CDMX
COCOYOTES (AMPL),7188,672.9,19.55079956,-99.12792479,Gustavo A. Madero,CDMX
COMPOSITORES MEXICANOS,7230,635.32,19.56561995,-99.14042392,Gustavo A. Madero,CDMX
CONSTITUCION DE LA REPUBLICA,7469,2346.712418,19.48323021,-99.1002972,Gustavo A. Madero,CDMX
COOPERATIVA LUIS ENRIQUE RODRGUEZ OROZCO (U HAB),7280,1191.33,19.53055009,-99.14226247,Gustavo A. Madero,CDMX
CTM ATZACOALCO (U HAB),7420,1688.044303,19.50764747,-99.09970984,Gustavo A. Madero,CDMX
CTM EL RISCO (U HAB),7090,1715.62,19.50940326,-99.09598612,Gustavo A. Madero,CDMX
CUAUTEPEC DE MADERO,7200,938.48,19.54562703,-99.13903566,Gustavo A. Madero,CDMX
CUAUTEPEC EL ALTO (PBLO),7700,914.8437966,19.55703149,-99.13394294,Gustavo A. Madero,CDMX
CUCHILLA DEL TESORO,7900,2233.44,19.44812714,-99.05800764,Gustavo A. Madero,CDMX
CUCHILLA LA JOYA,7890,1981.83,19.45815035,-99.11104701,Gustavo A. Madero,CDMX
DEFENSORES DE LA REPUBLICA,7880,2760.982271,19.47524248,-99.14304472,Gustavo A. Madero,CDMX
DEL BOSQUE,7230,938.48,19.5447288,-99.14297822,Gustavo A. Madero,CDMX
DEL OBRERO,7440,1948.5,19.50021407,-99.09140176,Gustavo A. Madero,CDMX
DM NACIONAL,7495,2243.22,19.47560336,-99.09584475,Gustavo A. Madero,CDMX
EDUARDO MOLINA I (U HAB),7458,2530.28,19.48314849,-99.09104532,Gustavo A. Madero,CDMX
EDUARDO MOLINA II (U HAB),7469,2530.28,19.4831208,-99.09213066,Gustavo A. Madero,CDMX
EJIDOS SAN JUAN DE ARAGON 1A SECCION (U HAB),7950,2252.96,19.46925544,-99.09210921,Gustavo A. Madero,CDMX
EJIDOS SAN JUAN DE ARAGON 2A SECCION (U HAB),7969,2177.42,19.46563988,-99.07704536,Gustavo A. Madero,CDMX
EL ARBOLILLO,7530,944.33,19.53632457,-99.14113351,Gustavo A. Madero,CDMX
EL ARBOLILLO 1 (U HAB),7240,1985.67,19.5300045,-99.14788151,Gustavo A. Madero,CDMX
EL ARBOLILLO 2 (U HAB),7280,1191.33,19.53410348,-99.14455693,Gustavo A. Madero,CDMX
EL ARBOLILLO 3 (U HAB),7280,1191.33,19.53789915,-99.14489577,Gustavo A. Madero,CDMX
EL CARMEN,7199,1005.168959,19.54312551,-99.13306381,Gustavo A. Madero,CDMX
EL COYOL (U HAB),7420,2518.686,19.48808983,-99.09008188,Gustavo A. Madero,CDMX
EL OLIVO,7950,1852.598503,19.47359728,-99.08664842,Gustavo A. Madero,CDMX
EMILIANO ZAPATA,7889,1981.83,19.46141462,-99.11778041,Gustavo A. Madero,CDMX
EMILIANO ZAPATA (AMPL),7860,1981.83,19.46398241,-99.10572586,Gustavo A. Madero,CDMX
ESTANZUELA,7360,2156.28987,19.49043178,-99.1097769,Gustavo A. Madero,CDMX
ESTRELLA,7810,2738.244745,19.47514581,-99.11673119,Gustavo A. Madero,CDMX
EX-ESCUELA DE TIRO,7960,1981.83,19.45323929,-99.09969012,Gustavo A. Madero,CDMX
FAJA DE ORO,7860,1981.83,19.46652134,-99.10524958,Gustavo A. Madero,CDMX
FERNANDO CASAS ALEMAN,7960,1981.83,19.45249999,-99.0959227,Gustavo A. Madero,CDMX
FERROCARRILERA INSURGENTES,7495,2530.28,19.48203461,-99.09236489,Gustavo A. Madero,CDMX
FOVISSSTE CUCHILLA (U HAB),7950,2252.96,19.47186652,-99.08755618,Gustavo A. Madero,CDMX
FOVISSSTE RIO DE GUADALUPE (U HAB),7950,2252.96,19.4726636,-99.08841237,Gustavo A. Madero,CDMX
FOVISSTE ARAGON (U HAB),7990,2759.89,19.45358754,-99.06142255,Gustavo A. Madero,CDMX
GABRIEL HERNANDEZ,7080,1433.711695,19.49829849,-99.09984059,Gustavo A. Madero,CDMX
GABRIEL HERNANDEZ (AMPL) I,7090,1438.198442,19.50324635,-99.09793418,Gustavo A. Madero,CDMX
GABRIEL HERNANDEZ (AMPL) II,7089,1435.25,19.50602632,-99.10378278,Gustavo A. Madero,CDMX
GENERAL FELIPE BERRIOZABAL,7220,585.93,19.55509025,-99.12824178,Gustavo A. Madero,CDMX
GERTRUDIS SANCHEZ 1A SECCION,7830,1981.83,19.46938421,-99.10435571,Gustavo A. Madero,CDMX
GERTRUDIS SANCHEZ 2A SECCION,7839,1981.83,19.46653563,-99.09982967,Gustavo A. Madero,CDMX
GERTRUDIS SANCHEZ 3A SECCION,7880,1981.83,19.46149318,-99.1017218,Gustavo A. Madero,CDMX
GRACIANO SANCHEZ,7210,985.96,19.55683048,-99.14727889,Gustavo A. Madero,CDMX
GRANJAS MODERNAS-SAN JUAN DE ARAGON (AMPL),7950,2243.22,19.47857588,-99.1050828,Gustavo A. Madero,CDMX
GUADALUPE INSURGENTES,7870,3159.191272,19.47344849,-99.13255061,Gustavo A. Madero,CDMX
GUADALUPE PROLETARIA,7760,2044.791965,19.52161808,-99.15554428,Gustavo A. Madero,CDMX
GUADALUPE PROLETARIA (AMPL),7680,1916.098023,19.52159041,-99.15212124,Gustavo A. Madero,CDMX
GUADALUPE TEPEYAC,7890,2950.008809,19.46746128,-99.12069072,Gustavo A. Madero,CDMX
GUADALUPE VICTORIA,7840,938.48,19.53929553,-99.14001731,Gustavo A. Madero,CDMX
GUADALUPE VICTORIA II,7870,2790.364011,19.47140818,-99.14071735,Gustavo A. Madero,CDMX
HEROE DE NACOZARI,7870,2653.709467,19.47098618,-99.14342357,Gustavo A. Madero,CDMX
HEROES DE CHAPULTEPEC,7939,2252.96,19.47387306,-99.09075426,Gustavo A. Madero,CDMX
HORNOS DE ARAGON (U HAB),7950,2252.96,19.47110489,-99.08049139,Gustavo A. Madero,CDMX
INDECO (U HAB),7990,2252.96,19.47331812,-99.08986648,Gustavo A. Madero,CDMX
INDUSTRIAL I,7880,3513.077005,19.47397784,-99.12415656,Gustavo A. Madero,CDMX
INDUSTRIAL II,7870,3165.47363,19.47493839,-99.12834942,Gustavo A. Madero,CDMX
INFONAVIT (U HAB),7330,2716.99,19.51602238,-99.1414472,Gustavo A. Madero,CDMX
INFONAVIT CAMINO SAN JUAN DE ARAGON (U HAB),7950,2252.96,19.4725547,-99.08262122,Gustavo A. Madero,CDMX
INFONAVIT LORETO FABELA (U HAB),7950,2252.96,19.47154907,-99.08030062,Gustavo A. Madero,CDMX
JAIME S EMILIANO G,7210,938.48,19.54778136,-99.13475855,Gustavo A. Madero,CDMX
JORGE NEGRETE,7880,1790.283467,19.52623242,-99.14353058,Gustavo A. Madero,CDMX
JOSE MARIA MORELOS Y PAVON I (U HAB),7459,2530.28,19.48391916,-99.0944814,Gustavo A. Madero,CDMX
JOSE MARIA MORELOS Y PAVON II (U HAB),7970,2425.71,19.47964387,-99.09168566,Gustavo A. Madero,CDMX
JOYAS VALLEJO (U HAB),7620,1918.44,19.52943649,-99.17270847,Gustavo A. Madero,CDMX
JUAN DE DIOS BATIZ (U HAB),7360,3136.06,19.50372083,-99.12972857,Gustavo A. Madero,CDMX
JUAN GONZALEZ ROMERO,7550,1604.13,19.50531561,-99.08967281,Gustavo A. Madero,CDMX
JUVENTINO ROSAS,7230,635.32,19.56275693,-99.13482138,Gustavo A. Madero,CDMX
LA CANDELARIA TICOMAN (BARR),7360,1208.901811,19.52115516,-99.1359427,Gustavo A. Madero,CDMX
LA CASILDA,7180,585.93,19.55624617,-99.12551201,Gustavo A. Madero,CDMX
LA CRUZ (BARR),7730,1357.319794,19.49262454,-99.10200338,Gustavo A. Madero,CDMX
LA ESMERALDA (U HAB),7580,2530.28,19.48930997,-99.08520953,Gustavo A. Madero,CDMX
LA ESMERALDA I,7549,2530.28,19.48658821,-99.08713081,Gustavo A. Madero,CDMX
LA ESMERALDA II,7540,2530.28,19.48590192,-99.08605029,Gustavo A. Madero,CDMX
LA ESMERALDA III,7540,2530.28,19.48481732,-99.08457531,Gustavo A. Madero,CDMX
LA FORESTAL,7440,657.1487065,19.56306359,-99.13108878,Gustavo A. Madero,CDMX
LA FORESTAL 1,7140,635.32,19.56760546,-99.12799916,Gustavo A. Madero,CDMX
LA FORESTAL 2,7140,636.5138294,19.56719582,-99.12696484,Gustavo A. Madero,CDMX
LA FORESTAL 3,7149,626.5444133,19.56997804,-99.12906281,Gustavo A. Madero,CDMX
LA JOYA,7890,1981.83,19.45683908,-99.10898734,Gustavo A. Madero,CDMX
LA JOYITA,7890,1981.83,19.46551396,-99.11680369,Gustavo A. Madero,CDMX
LA LAGUNA TICOMAN (BARR),7360,2467.399795,19.51403556,-99.1304601,Gustavo A. Madero,CDMX
LA MALINCHE,7899,2463.12,19.45287262,-99.10492461,Gustavo A. Madero,CDMX
LA PASTORA,7310,945.7699182,19.52732622,-99.13805796,Gustavo A. Madero,CDMX
LA PATERA-CONDOMODULOS (U HAB),7720,4232.978574,19.50469602,-99.15497923,Gustavo A. Madero,CDMX
LA PRADERA,7560,2048.54,19.47541143,-99.06671436,Gustavo A. Madero,CDMX
LA PRADERA I (U HAB),7500,1944.66475,19.47415473,-99.06277686,Gustavo A. Madero,CDMX
LA PRADERA II (U HAB),7570,2048.54,19.47186364,-99.06410058,Gustavo A. Madero,CDMX
LA PURISIMA TICOMAN (BARR),7708,2405.112638,19.5145849,-99.13821116,Gustavo A. Madero,CDMX
LINDAVISTA I,7730,4111.150493,19.49066591,-99.13254702,Gustavo A. Madero,CDMX
LINDAVISTA II,7300,3837.78443,19.49744764,-99.12932302,Gustavo A. Madero,CDMX
LINDAVISTA VALLEJO (U HAB),7790,4355.576026,19.4964389,-99.15016824,Gustavo A. Madero,CDMX
LOMA DE LA PALMA,7160,635.5297129,19.55471335,-99.14065321,Gustavo A. Madero,CDMX
LOMAS DE CUAUTEPEC,7270,647.6911059,19.56899814,-99.13534575,Gustavo A. Madero,CDMX
LOS OLIVOS (U HAB),7950,2252.96,19.47302319,-99.08167239,Gustavo A. Madero,CDMX
LUIS DONALDO COLOSIO,7164,845.1493137,19.56137735,-99.1451681,Gustavo A. Madero,CDMX
MAGDALENA DE LAS SALINAS,7780,3005.065162,19.48217705,-99.14051472,Gustavo A. Madero,CDMX
MALACATES,7201,836.7047838,19.57379866,-99.13299919,Gustavo A. Madero,CDMX
MALACATES (AMPL),7170,581.8569497,19.57685433,-99.13079616,Gustavo A. Madero,CDMX
MALVINAS MEXICANAS,7920,2048.54,19.47019681,-99.06362259,Gustavo A. Madero,CDMX
MARTIN CARRERA I,7300,2425.71,19.48694474,-99.10817158,Gustavo A. Madero,CDMX
MARTIN CARRERA II,7090,2371.049458,19.4896674,-99.10647831,Gustavo A. Madero,CDMX
MARTIRES DE RIO BLANCO,7890,1981.83,19.45996458,-99.11370562,Gustavo A. Madero,CDMX
MARTIRES DE RIO BLANCO (AMPL),7880,1981.83,19.46194113,-99.10638179,Gustavo A. Madero,CDMX
MAXIMINO AVILA CAMACHO,7770,2781.811835,19.47825609,-99.13734306,Gustavo A. Madero,CDMX
NARCISO BASSOLS (U HAB),7990,2233.44,19.45641109,-99.05676982,Gustavo A. Madero,CDMX
NUEVA ATZACOALCO I,7820,1803.02,19.50332196,-99.08279211,Gustavo A. Madero,CDMX
NUEVA ATZACOALCO II,7920,1803.02,19.49936883,-99.08581731,Gustavo A. Madero,CDMX
NUEVA ATZACOALCO III,7440,1803.02,19.49344919,-99.08878702,Gustavo A. Madero,CDMX
NUEVA INDUSTRIAL VALLEJO (FRACC),7729,4481.330051,19.50813387,-99.15310621,Gustavo A. Madero,CDMX
NUEVA TENOCHTITLAN,7980,1982.188636,19.45656977,-99.1038436,Gustavo A. Madero,CDMX
NUEVA VALLEJO,7870,2860.343923,19.48861358,-99.14878633,Gustavo A. Madero,CDMX
PALMATITLA,7210,716.6828314,19.55181965,-99.13227939,Gustavo A. Madero,CDMX
PANAMERICANA,7770,2787.269155,19.47952755,-99.14344433,Gustavo A. Madero,CDMX
PANAMERICANA (AMPL),7780,2903.04014,19.47718949,-99.14133082,Gustavo A. Madero,CDMX
PARQUE METROPOLITANO,7210,660.7663636,19.56808445,-99.1314605,Gustavo A. Madero,CDMX
PEMEX LINDAVISTA (U HAB),7320,2747.95,19.50640145,-99.13399049,Gustavo A. Madero,CDMX
PLANETARIO LINDAVISTA,7739,3318.85,19.49559759,-99.14156683,Gustavo A. Madero,CDMX
PLAZA ORIENTE (RDCIAL),7456,2530.28,19.48490154,-99.09232359,Gustavo A. Madero,CDMX
PRADOS DE CUAUTEPEC,7164,635.32,19.56132356,-99.14196754,Gustavo A. Madero,CDMX
PROGRESO NACIONAL (AMPL),7650,2190.882659,19.51615176,-99.16007963,Gustavo A. Madero,CDMX
PROGRESO NACIONAL I,7670,2190.49,19.52056491,-99.16130346,Gustavo A. Madero,CDMX
PROGRESO NACIONAL II,7670,2220.876866,19.51811547,-99.15370891,Gustavo A. Madero,CDMX
PROVIDENCIA (AMPL),7560,2048.54,19.47857024,-99.07004975,Gustavo A. Madero,CDMX
PROVIDENCIA I,7560,2048.54,19.48170422,-99.07278683,Gustavo A. Madero,CDMX
PROVIDENCIA II,7560,2048.004224,19.48413449,-99.06751318,Gustavo A. Madero,CDMX
PROVIDENCIA III,7950,2048.54,19.48679328,-99.07202605,Gustavo A. Madero,CDMX
QUETZALCOATL 3,7160,635.32,19.55913676,-99.14084819,Gustavo A. Madero,CDMX
RESIDENCIAL LA ESCALERA (FRACC),7600,2747.95,19.50857606,-99.13686448,Gustavo A. Madero,CDMX
RESIDENCIAL ZACATENCO,7630,2443.332495,19.50340237,-99.12451706,Gustavo A. Madero,CDMX
REVOLUCION IMSS (U HAB),7760,5210.05,19.48546232,-99.13332027,Gustavo A. Madero,CDMX
ROSAS DEL TEPEYAC,7100,2273.337642,19.49004633,-99.1157869,Gustavo A. Madero,CDMX
SALVADOR DIAZ MIRON,7440,2425.71,19.48767707,-99.09775748,Gustavo A. Madero,CDMX
SAN ANTONIO,7160,635.32,19.55998007,-99.1375459,Gustavo A. Madero,CDMX
SAN BARTOLO ATEPEHUACAN (PBLO),7740,3002.851418,19.49326845,-99.14313612,Gustavo A. Madero,CDMX
SAN FELIPE DE JESUS I,7570,1980.55,19.49727852,-99.06838599,Gustavo A. Madero,CDMX
SAN FELIPE DE JESUS II,7550,1980.55,19.49169381,-99.07779072,Gustavo A. Madero,CDMX
SAN FELIPE DE JESUS III,7510,1980.55,19.49886211,-99.07648433,Gustavo A. Madero,CDMX
SAN FELIPE DE JESUS IV,7570,1980.55,19.49398439,-99.07143396,Gustavo A. Madero,CDMX
SAN JOSE DE LA ESCALERA,7640,1918.317284,19.52560284,-99.16431979,Gustavo A. Madero,CDMX
SAN JOSE TICOMAN,7550,3082.914754,19.50481225,-99.13225222,Gustavo A. Madero,CDMX
SAN JUAN DE ARAGON (PBLO),7950,2252.96,19.47005019,-99.08325107,Gustavo A. Madero,CDMX
SAN JUAN DE ARAGON 1A SECCION (U HAB) I,7979,2652.55,19.45564942,-99.0924271,Gustavo A. Madero,CDMX
SAN JUAN DE ARAGON 1A SECCION (U HAB) II,7970,2652.55,19.46214892,-99.0913633,Gustavo A. Madero,CDMX
SAN JUAN DE ARAGON 2A SECCION (U HAB) I,7970,2652.55,19.45096531,-99.08674702,Gustavo A. Madero,CDMX
SAN JUAN DE ARAGON 2A SECCION (U HAB) II,7969,2652.55,19.45669543,-99.08483365,Gustavo A. Madero,CDMX
SAN JUAN DE ARAGON 3A SECCION (U HAB) I,7990,2677.35,19.45206086,-99.07316109,Gustavo A. Madero,CDMX
SAN JUAN DE ARAGON 3A SECCION (U HAB) II,7969,2677.35,19.45164733,-99.06915914,Gustavo A. Madero,CDMX
SAN JUAN DE ARAGON 4A  Y 5A SECCION (U HAB) I,7990,2581.65,19.45104186,-99.06369955,Gustavo A. Madero,CDMX
SAN JUAN DE ARAGON 4A  Y 5A SECCION (U HAB) II,7990,2581.75745,19.45715831,-99.06487011,Gustavo A. Madero,CDMX
SAN JUAN DE ARAGON 6A SECCION (U HAB) I,7979,2598.54,19.4693928,-99.06938285,Gustavo A. Madero,CDMX
SAN JUAN DE ARAGON 6A SECCION (U HAB) II,7979,2598.54,19.46629079,-99.06397923,Gustavo A. Madero,CDMX
SAN JUAN DE ARAGON 7 SECC (U HAB) I,7970,2598.54,19.4699068,-99.07811979,Gustavo A. Madero,CDMX
SAN JUAN DE ARAGON 7 SECC (U HAB) II,7920,2598.54,19.46936499,-99.0733484,Gustavo A. Madero,CDMX
SAN JUAN III (U HAB),7469,2425.71,19.47986645,-99.09398223,Gustavo A. Madero,CDMX
SAN JUAN Y GUADALUPE TICOMAN (BARR),7350,1076.238306,19.52100077,-99.1291604,Gustavo A. Madero,CDMX
SAN MIGUEL CUAUTEPEC,7109,884.1826866,19.55991797,-99.13590176,Gustavo A. Madero,CDMX
SAN MIGUEL-LA ESCALERA (BARR),7950,2252.96,19.47135667,-99.08908966,Gustavo A. Madero,CDMX
SAN PEDRO EL CHICO,7920,1981.83,19.4711696,-99.09787661,Gustavo A. Madero,CDMX
SAN PEDRO ZACATENCO (PBLO),7730,2122.536262,19.50650986,-99.12192032,Gustavo A. Madero,CDMX
SAN RAFAEL TICOMAN (BARR),7360,1632.474771,19.51531599,-99.1243848,Gustavo A. Madero,CDMX
SANTA ISABEL TOLA (PBLO),7810,2259.222479,19.49783704,-99.11394401,Gustavo A. Madero,CDMX
SANTA ROSA,7620,1918.44,19.52358712,-99.16922387,Gustavo A. Madero,CDMX
SANTIAGO ATEPETLAC,7670,1991.130077,19.52418742,-99.16042898,Gustavo A. Madero,CDMX
SANTIAGO ATEPETLAC (LA SELVITA) (U HAB),7640,2190.49,19.51957459,-99.14764167,Gustavo A. Madero,CDMX
SANTIAGO ATZACOALCO (PBLO),7430,1948.5,19.49620004,-99.09709067,Gustavo A. Madero,CDMX
SCT (U HAB),7770,4214.41,19.50768733,-99.15676211,Gustavo A. Madero,CDMX
SIETE MARAVILLAS,7709,2907.138571,19.51388988,-99.14384237,Gustavo A. Madero,CDMX
SOLIDARIDAD NACIONAL,7280,922.764589,19.53294239,-99.15383401,Gustavo A. Madero,CDMX
SUTIC VALLEJO (U HAB),7330,2716.99,19.51606657,-99.13957583,Gustavo A. Madero,CDMX
TABLAS DE SAN AGUSTIN,7890,1981.83,19.46455833,-99.1125676,Gustavo A. Madero,CDMX
TEPETATAL,7300,635.32,19.56249798,-99.13797876,Gustavo A. Madero,CDMX
TEPEYAC INSURGENTES,7820,3223.64825,19.48373178,-99.1218466,Gustavo A. Madero,CDMX
TLACAELEL,7750,637.2465934,19.55950237,-99.1446491,Gustavo A. Madero,CDMX
TLACAMACA,7870,2885.083717,19.47468352,-99.13676789,Gustavo A. Madero,CDMX
TLALPEXCO,7188,676.5039212,19.54660282,-99.12591314,Gustavo A. Madero,CDMX
TORRES DE QUIROGA (U HAB),7450,2425.71,19.49092079,-99.09599295,Gustavo A. Madero,CDMX
TORRES DE SAN JUAN (U HAB),7469,2425.71,19.47874397,-99.09293846,Gustavo A. Madero,CDMX
TORRES DE SAN JUAN 1B (U HAB),7495,2425.71,19.48058493,-99.09265531,Gustavo A. Madero,CDMX
TORRES LINDAVISTA (FRACC),7750,3944.719855,19.510373,-99.1435466,Gustavo A. Madero,CDMX
TRES ESTRELLAS,7820,1981.83,19.47221424,-99.11116109,Gustavo A. Madero,CDMX
TRIUNFO DE LA REPUBLICA,7070,1822.642051,19.49171791,-99.10943857,Gustavo A. Madero,CDMX
VALLE DE MADERO,7910,923.4826855,19.5504428,-99.13889921,Gustavo A. Madero,CDMX
VALLE DEL TEPEYAC,7790,3080.465294,19.48815202,-99.14162753,Gustavo A. Madero,CDMX
VALLEJO I,7880,3956.592761,19.46772618,-99.13441583,Gustavo A. Madero,CDMX
VALLEJO II,7890,4042.112642,19.46550336,-99.12863106,Gustavo A. Madero,CDMX
VALLEJO PONIENTE,7870,2611.56,19.4677311,-99.1423092,Gustavo A. Madero,CDMX
VASCO DE QUIROGA,7440,2009.44874,19.4943962,-99.09424193,Gustavo A. Madero,CDMX
VERONICA CASTRO,7144,557.55,19.57317046,-99.12919566,Gustavo A. Madero,CDMX
VILLA DE ARAGON,7570,2405.635067,19.46391633,-99.05750688,Gustavo A. Madero,CDMX
VILLA DE ARAGON (FRACC),7970,2380.752377,19.46848952,-99.06063316,Gustavo A. Madero,CDMX
VILLA GUSTAVO A MADERO,7660,2265.687834,19.48332371,-99.11227153,Gustavo A. Madero,CDMX
VILLA HERMOSA,7410,1604.13,19.50210296,-99.09220248,Gustavo A. Madero,CDMX
VISTA HERMOSA,7410,672.9,19.54777697,-99.12243322,Gustavo A. Madero,CDMX
ZONA ESCOLAR I,7300,938.48,19.53886306,-99.14993835,Gustavo A. Madero,CDMX
ZONA ESCOLAR II,7270,938.48,19.54159661,-99.14743419,Gustavo A. Madero,CDMX
ZONA ESCOLAR ORIENTE,7339,938.48,19.53980112,-99.14313331,Gustavo A. Madero,CDMX
