last_scraped,name,neighbourhood_cleansed,latitude,longitude,price
9/22/2022,Villa Dante,Cuajimalpa de Morelos,19.38283,-99.27178,"$4,001.00 "
9/22/2022,"Area Sta.Fe,IberoABC Hospital Rooms",Cuajimalpa de Morelos,19.35379,-99.28459,$500.00 
9/23/2022,Classic but Modern Apartment in Condesa,Cuauhtémoc,19.41824,-99.1756,$599.00 
9/23/2022,CONDESA HAUS  B&B,Cuauhtémoc,19.41162,-99.17794,"$18,000.00 "
9/22/2022,Live Mexico City Like a Small Town,Benito Juárez,19.38468,-99.17708,$740.00 
9/23/2022,Great space in historical San Rafael,Cuauhtémoc,19.43977,-99.15605,$650.00 
9/23/2022,AMAZING LOFT in the heart of CDMX,Miguel Hidalgo,19.40243,-99.17828,"$1,441.00 "
9/23/2022,Entire beautiful duplex in la Roma,Cuauhtémoc,19.42113,-99.15955,"$1,797.00 "
9/23/2022,Spacious Clean Quiet room (own bath) in la Condesa,Cuauhtémoc,19.41083,-99.18057,"$1,198.00 "
9/23/2022,"2 bedroom apt. deco bldg, Condesa",Cuauhtémoc,19.41152,-99.16857,"$2,496.00 "
9/23/2022,Suite 5 - Suites Condesa Mexico,Cuauhtémoc,19.40915,-99.17321,$900.00 
9/23/2022,Beautiful light Studio Coyoacan- full equipped !,Coyoacán,19.35448,-99.16217,"$1,178.00 "
9/23/2022,Suite 7 - Suites Condesa Mexico,Cuauhtémoc,19.40915,-99.17321,$850.00 
9/23/2022,Suite 12 - Suites Condesa Mexico,Cuauhtémoc,19.40915,-99.17321,$971.00 
9/23/2022,NEW  DESIGNER LOFT,Miguel Hidalgo,19.43211,-99.19327,"$3,754.00 "
9/22/2022,Apartment with Internet & 2 cable TV's,Coyoacán,19.34183,-99.15533,$600.00 
9/22/2022,MARIA DEL ALMA,Coyoacán,19.35416,-99.16488,"$1,360.00 "
9/23/2022,BEST 4BR 4 BH HOUSE IN S. MIGUEL CHAPULTEPEC,Miguel Hidalgo,19.40826,-99.18659,"$3,794.00 "
9/22/2022,ROOMS CASA INDIGO WITH TERRACE AT CITY CENTER,Cuauhtémoc,19.44262,-99.14566,$440.00 
9/23/2022,Cool room near WTC and Metrobus,Benito Juárez,19.39675,-99.17581,$290.00 
9/22/2022,Well located on calm neighborhood,Benito Juárez,19.38336,-99.18197,$460.00 
9/23/2022,"Beautiful, Big apartment, Condesa,",Cuauhtémoc,19.41319,-99.1758,"$1,897.00 "
9/23/2022,Business Suite RED near Reforma Av.,Cuauhtémoc,19.43078,-99.17011,"$1,098.00 "
9/23/2022,"Huge Luxurious Suite 70's style, perfectly located",Cuauhtémoc,19.4239,-99.1689,"$1,093.00 "
9/22/2022,"Lovely comfortable room facing garden, Alcatraz",Coyoacán,19.34424,-99.17095,$600.00 
9/23/2022,Spacious apt with the best rooftop in Condesa,Cuauhtémoc,19.41057,-99.1773,"$50,000.00 "
9/23/2022,Business Suite PURPLE near Reforma,Cuauhtémoc,19.43068,-99.17007,$998.00 
9/23/2022,Extraordinarily Spacious Apt. in Condesa,Cuauhtémoc,19.41057,-99.1773,"$5,000.00 "
9/23/2022,Sunny & Fresh Apt. with best rooftop in Condesa,Cuauhtémoc,19.41057,-99.1773,"$2,000.00 "
9/23/2022,Business Suite BLUE near Reforma Av,Cuauhtémoc,19.4306,-99.17074,$998.00 
9/23/2022,Smack in the Middle of La Condesa,Cuauhtémoc,19.41554,-99.17927,$799.00 
9/23/2022,Business Suite BLACK near Reforma,Cuauhtémoc,19.43052,-99.17003,$998.00 
9/23/2022,"Traditional neighborhood: Escandón, Condesa & Roma",Cuauhtémoc,19.4059,-99.17548,"$1,200.00 "
9/23/2022,Cozy House with Roofterrace group 29 pax Center DF,Cuauhtémoc,19.44207,-99.14797,"$2,796.00 "
9/23/2022,Spacious and cozy apartment in trendy Condesa,Cuauhtémoc,19.40491,-99.17177,$802.00 
9/23/2022,1 Bedroom Apt with Balcony  / City skyline view,Cuauhtémoc,19.42063,-99.16586,"$1,638.00 "
9/23/2022,"Best location in town, Reforma Ave area.",Cuauhtémoc,19.4236,-99.16979,$899.00 
9/23/2022,15 blocks from Paseo de la Reforma,Miguel Hidalgo,19.43956,-99.17263,$810.00 
9/23/2022,"Independent studio, top location",Cuauhtémoc,19.43516,-99.13806,$599.00 
9/23/2022,Radiant Apartment with Terrace in Roma Norte,Cuauhtémoc,19.42288,-99.15488,"$1,555.00 "
9/23/2022,"""Chavela"" Private & Furnished Room",Cuauhtémoc,19.41472,-99.15602,$524.00 
9/23/2022,GREAT HOUSE IN S MIGUEL CHAPULTEPEC,Miguel Hidalgo,19.40663,-99.18653,"$3,315.00 "
9/23/2022,NEW! HISTORIC BUILDING -BEST STREET,Cuauhtémoc,19.41434,-99.15857,"$1,726.00 "
9/23/2022,High End Condo with golf package,Iztacalco,19.38061,-99.12729,"$1,997.00 "
9/23/2022,Private en suite in City house,Cuauhtémoc,19.43817,-99.15466,$799.00 
9/23/2022,COOL PENT HOUSE APARTMENT @CONDESA,Cuauhtémoc,19.41108,-99.17634,"$2,860.00 "
9/22/2022,PLAZA DEL ARCÁNGEL EN SAN ÁNGEL,Álvaro Obregón,19.34406,-99.19413,"$7,001.00 "
9/23/2022,Furnished lovely cozy studio,Cuauhtémoc,19.41241,-99.1753,$599.00 
9/22/2022,A nice room with great location,Benito Juárez,19.36305,-99.15412,$600.00 
9/23/2022,Comfy in the Middle of La Condesa,Cuauhtémoc,19.41368,-99.17907,$799.00 
9/22/2022,"OASIS IN COYOACAN, SHARED HOUSE",Coyoacán,19.34034,-99.18345,$280.00 
9/22/2022,2Room new apartment in modern complex,Miguel Hidalgo,19.45906,-99.19071,$600.00 
9/23/2022,Feel the Magic of Mexico City from this Duplex Loft,Cuauhtémoc,19.43271,-99.13857,"$1,358.00 "
9/23/2022,"Confortable private room, downtown Mexico City.",Cuauhtémoc,19.43319,-99.14665,$499.00 
9/23/2022,Chilango chic: room historic Condesa DF,Cuauhtémoc,19.40592,-99.1691,$779.00 
9/22/2022,WONDERFUL ROOM IN COYOACAN HOUSE,Coyoacán,19.34034,-99.18345,$346.00 
9/23/2022,Room in contemporary chic apt: Roma-Best location,Cuauhtémoc,19.41444,-99.15734,$600.00 
9/22/2022,"Villa Alfonsina, Heart of Coyoacan",Coyoacán,19.35445,-99.16251,"$1,177.00 "
9/23/2022,Habitación Verde.,Tlalpan,19.2751,-99.17757,$300.00 
9/22/2022,Apartment at south of Mexico city,Coyoacán,19.30523,-99.18356,$450.00 
9/22/2022,Bedroom for rent,Iztapalapa,19.32227,-99.09046,$258.00 
9/22/2022,Rento recámara en Coyoacán centro,Coyoacán,19.34549,-99.15872,"$1,300.00 "
9/23/2022,"Comfort, convenience & security, all in one place",Benito Juárez,19.36809,-99.17821,$850.00 
9/23/2022,"CONDESA COZY, COMFORTABLE APARTMENT",Cuauhtémoc,19.41975,-99.17341,"$1,538.00 "
9/22/2022,"Location & security, double bedroom apartment",Benito Juárez,19.36613,-99.17831,$440.00 
9/23/2022,Beautiful designer artists home..,Coyoacán,19.35164,-99.15289,"$4,893.00 "
9/23/2022,beautiful furnished room Rome area,Cuauhtémoc,19.40639,-99.16686,"$1,098.00 "
9/23/2022,"Cuarto Amplio con Estudio, Roma DF.",Cuauhtémoc,19.41317,-99.15735,$502.00 
9/22/2022,Recámara luminosa y jardín,Miguel Hidalgo,19.40237,-99.24315,"$2,000.00 "
9/22/2022,"Renew Room, near to Condesa",Benito Juárez,19.39129,-99.1888,$420.00 
9/23/2022,Suite 1 - Suites Condesa Mexico,Cuauhtémoc,19.40915,-99.17321,$900.00 
9/23/2022,Spacious Modern Apt. with Parking Near Reforma Ave,Cuauhtémoc,19.43165,-99.17132,"$1,598.00 "
9/23/2022,Cosy apartment in Polanco near park,Miguel Hidalgo,19.42948,-99.19179,"$2,358.00 "
9/23/2022,Contemporary apt. in historic spot,Cuauhtémoc,19.4336,-99.13224,"$1,178.00 "
9/23/2022,Condesa Roma WTC Loft,Cuauhtémoc,19.40213,-99.16924,$579.00 
9/23/2022,"Great Accommodation in Condesa , modern , secure",Cuauhtémoc,19.41277,-99.17546,$899.00 
9/23/2022,Distrito Condesa entire house or by room,Cuauhtémoc,19.4075,-99.17561,"$13,500.00 "
9/23/2022,♡ 50%Off Exclusive King Size Pool & Gym US Embassy,Cuauhtémoc,19.42801,-99.16467,"$2,904.00 "
9/23/2022,"Comfortable, beautiful and convenient pied à terre",Miguel Hidalgo,19.43514,-99.18361,$959.00 
9/22/2022,SALUDOS MI NOMBRE ES FERNANDO,Miguel Hidalgo,19.45684,-99.17179,$700.00 
9/23/2022,Luxury Loft-Style Apartment in Vibrant Polanco Neighborhood,Miguel Hidalgo,19.43179,-99.19426,"$3,375.00 "
9/22/2022,"Room colonial, green, Coyoacán (Women only)",Coyoacán,19.3424,-99.15419,$297.00 
9/22/2022,¡ Hermosa habitación en la Ciudad de México !,Coyoacán,19.34356,-99.1286,$350.00 
9/23/2022,Cool apartment with  the Best Roof Top in Condesa,Cuauhtémoc,19.41068,-99.17732,"$2,300.00 "
9/22/2022,Comfortable stay at sunny flat,Benito Juárez,19.38366,-99.16569,$500.00 
9/22/2022,"Hermosa recámara, cerca La Condesa",Benito Juárez,19.39165,-99.18885,$420.00 
9/23/2022,Comfy clean Roøm @Cozy apartment,Cuauhtémoc,19.41017,-99.17886,$659.00 
9/22/2022,Explore the City's Historic Center,Cuauhtémoc,19.42454,-99.13845,$500.00 
9/22/2022,"Cozy, chic & peaceful  apartment.",Benito Juárez,19.38148,-99.18216,$600.00 
9/23/2022,"Condesa, ideal for tourism or remote work",Cuauhtémoc,19.40836,-99.1733,"$1,569.00 "
9/23/2022,Prívate apartment next to public transport,Benito Juárez,19.39829,-99.13817,$420.00 
9/23/2022,Chic Room in Luxury Polanco,Miguel Hidalgo,19.42903,-99.19238,"$2,496.00 "
9/22/2022,Nice and cozy room with terrace!!!!,La Magdalena Contreras,19.33036,-99.21737,$800.00 
9/23/2022,"CITY CENTER 2BR,  SECURE, City Tours, Lap Pool 416",Cuauhtémoc,19.43432,-99.14581,"$1,258.00 "
9/23/2022,Habitación disponible,Miguel Hidalgo,19.40288,-99.17884,$561.00 
9/23/2022,Departamento  Roma Norte- Sanitizado,Cuauhtémoc,19.42675,-99.1613,$759.00 
9/23/2022,HOUSE INDIGO IN THE CEN. OF MEX CITY,Cuauhtémoc,19.44324,-99.14649,"$2,796.00 "
9/22/2022,SPOTLESS beautiful sunny loft in Del Valle,Benito Juárez,19.38015,-99.17402,$980.00 
9/23/2022,Spacious 60´s / San Rafael-Reforma check in 24hrs,Cuauhtémoc,19.43898,-99.16142,$749.00 
9/23/2022,Modern Suite in Roma Mansion,Cuauhtémoc,19.41701,-99.1658,"$1,700.00 "
9/22/2022,Great location & security single bedroom Apartment,Benito Juárez,19.36926,-99.1804,$290.00 
9/22/2022,Luxury Room for rent in Santa Fe area México City,Miguel Hidalgo,19.38875,-99.24067,"$1,143.00 "
9/23/2022,"Deluxe 4-BR penthouse, views, historic center",Cuauhtémoc,19.43621,-99.13874,"$3,734.00 "
9/23/2022,Fancy Furnished Apartment & Great Location,Cuauhtémoc,19.42029,-99.17323,"$1,438.00 "
9/23/2022,For Foreign business guest+WiFi+Spa+Pool+Jacuzzi+,Cuauhtémoc,19.427969,-99.161293,"$1,379.00 "
9/23/2022,"Fabulous 3BR penthouse, Views, Historic Center",Cuauhtémoc,19.43651,-99.13905,"$6,011.00 "
9/23/2022,The best cheap flat in La Condesa!!,Cuauhtémoc,19.41578,-99.17425,"$1,400.00 "
9/23/2022,Charming loft near Reforma Ave.,Miguel Hidalgo,19.42833,-99.17634,$972.00 
9/22/2022,Nice big room near airport,Venustiano Carranza,19.43784,-99.07903,$550.00 
9/22/2022,Habitación  Frida - cocina y balcón  compartido,Benito Juárez,19.38021,-99.16878,$750.00 
9/22/2022,Beautiful  bedroom in Mexico City near Sta Fe,Álvaro Obregón,19.38552,-99.22276,$500.00 
9/23/2022,Beautiful Colonia Roma apartment,Cuauhtémoc,19.41588,-99.15981,"$2,282.00 "
9/23/2022,Roma Condesa Espectacular Home,Cuauhtémoc,19.41887,-99.17333,"$3,620.00 "
9/23/2022,Location: Sunny & Cozy 2bedrms 1.5baths,Cuauhtémoc,19.4144,-99.17742,"$1,061.00 "
9/22/2022,Short/Long Term near Coyoacan&Cntr Nat delas Artes,Iztapalapa,19.35796,-99.12219,$600.00 
9/23/2022,"Nuevo Polanco, increíble ubicación! (Hab Priv)",Miguel Hidalgo,19.4419,-99.20079,$750.00 
9/22/2022,SUPER CLEAN great sunny apartment in Del Valle,Benito Juárez,19.37845,-99.17221,$697.00 
9/23/2022,New Suite in Vintage Home in Roma/Condesa,Cuauhtémoc,19.41709,-99.16603,"$1,800.00 "
9/22/2022,Descansa en la Suite de la Abuelita San Angel CDMX,Álvaro Obregón,19.34735,-99.19016,"$2,900.00 "
9/22/2022,Un descanso en CDMX,Cuauhtémoc,19.45595,-99.15944,$210.00 
9/23/2022,Recline on the Terrace of this 1920s Art Nouveau Mansion,Cuauhtémoc,19.41501,-99.16565,"$1,800.00 "
9/23/2022,MODERN/HIP FURNISHED APARTMENT ( S1 Condesa Haus),Cuauhtémoc,19.41346,-99.1775,"$2,600.00 "
9/23/2022,"""Frida"" beautiful Private Room",Cuauhtémoc,19.41269,-99.15512,$550.00 
9/23/2022,Stylish home in the heart of Mexico City,Cuauhtémoc,19.43149,-99.165543,"$1,977.00 "
9/23/2022,Habitación individual c baño propio,Cuauhtémoc,19.41095,-99.18215,"$1,278.00 "
9/23/2022,"historic center, balcony overlooking the city 12D",Cuauhtémoc,19.43374,-99.14616,"$1,518.00 "
9/23/2022,Two Floor apartment in Porfirian Town House,Cuauhtémoc,19.41919,-99.15894,"$1,957.00 "
9/23/2022,"Cozy apartment in Condesa, Mexico",Cuauhtémoc,19.41147,-99.17284,"$1,130.00 "
9/22/2022,"Descansa en la suite del geógrafo, San Angel CDMX",Álvaro Obregón,19.34923,-99.19307,"$2,200.00 "
9/22/2022,Apartment close to the Basílica.,Gustavo A. Madero,19.48321,-99.11241,$400.00 
9/22/2022,"Cómodo Estudio del Botánico, San Angel CDMX",Álvaro Obregón,19.34723,-99.19396,"$1,800.00 "
9/23/2022,Beautiful appartement on Reforma,Cuauhtémoc,19.43221,-99.15708,"$1,498.00 "
9/22/2022,House in Xochimilco,Xochimilco,19.26541,-99.11365,$600.00 
9/23/2022,"Stylish 2BR penthouse, views, in Historic Center",Cuauhtémoc,19.43427,-99.13832,"$4,992.00 "
9/23/2022,"Magnificent 2-BR apartment, views",Cuauhtémoc,19.43423,-99.13718,"$5,991.00 "
9/23/2022,90m2 / Mexico City's Hist. downtown,Cuauhtémoc,19.43826,-99.1366,"$1,362.00 "
9/23/2022,Amazing location /  Behind Hilton Hotel,Cuauhtémoc,19.43432,-99.14581,$850.00 
9/23/2022,40's Apartment downtown Mexico City,Cuauhtémoc,19.41143,-99.16533,"$1,519.00 "
9/22/2022,Apt near Mexico City's downtown,Cuauhtémoc,19.44614,-99.15868,"$2,000.00 "
9/23/2022,Near park Mexico. Brilliant and renovated flat!,Cuauhtémoc,19.41638,-99.16868,"$1,298.00 "
9/22/2022,nice apartment in colonia del Valle,Benito Juárez,19.38089,-99.17245,"$1,000.00 "
9/23/2022,"Sunny comfy flat,with terrace. Great location!",Cuauhtémoc,19.41936,-99.17281,"$1,569.00 "
9/23/2022,xo   PH with roof garden,Cuauhtémoc,19.43122,-99.15562,"$1,631.00 "
9/23/2022,Luminoso departamento muy bien ubicado y tranquilo,Benito Juárez,19.36823,-99.18607,$800.00 
9/22/2022,"Juan O'Gorman House - Studio,",Álvaro Obregón,19.35106,-99.19789,"$6,561.00 "
9/23/2022,50% Off 150 Mbps King Size Suite step Condesa Roma,Cuauhtémoc,19.42804,-99.16463,"$2,995.00 "
9/23/2022,"Big Penthouse, Unmatched View. Great Location.",Miguel Hidalgo,19.41499,-99.18215,"$7,968.00 "
9/23/2022,"Bonito, roma norte, ubicadísimo",Cuauhtémoc,19.42048,-99.16697,$450.00 
9/22/2022,Private room in nice apartment,Miguel Hidalgo,19.44232,-99.18332,$580.00 
9/23/2022,"Great location, nice apartment",Cuauhtémoc,19.42242,-99.16823,$350.00 
9/23/2022,Great 1920's Brownstone La Juárez,Cuauhtémoc,19.42048,-99.15678,"$1,897.00 "
9/22/2022,Mountain Oasis surrender by trees,Tlalpan,19.24444,-99.17044,$411.00 
9/22/2022,"Cómodo Estudio del Arqueólogo, San Angel CDMX",Álvaro Obregón,19.34943,-99.19427,"$1,800.00 "
9/22/2022,1 private room in a nice apartment,Miguel Hidalgo,19.44333058,-99.18496997,$560.00 
9/22/2022,"Private room. Near COLMEX, UPN, FLACSO",Tlalpan,19.28356,-99.21837,$600.00 
9/23/2022,"Depa  2 cuartos, Roma Condesa",Cuauhtémoc,19.41063,-99.16575,"$1,100.00 "
9/22/2022,"Comfortable and luminous house, 3 levels, 1-10 prs",Venustiano Carranza,19.41417,-99.11566,"$1,800.00 "
9/23/2022,Sunny Apartment Historic Coyoacan!,Coyoacán,19.34768,-99.15493,$240.00 
9/23/2022,Modern Complex in Historic District⭐️,Cuauhtémoc,19.43048,-99.14461,"$1,278.00 "
9/22/2022,Full appartment in Narvarte,Benito Juárez,19.38672,-99.15554,$700.00 
9/23/2022,Big sunny flat Plaza Rio de Janeiro,Cuauhtémoc,19.42064,-99.16134,"$1,997.00 "
9/22/2022,Simple y Práctico a 2 cuadras de Polanco,Miguel Hidalgo,19.44226,-99.18406,"$1,200.00 "
9/23/2022,Lovely Bright Studio in Perfect Location!,Miguel Hidalgo,19.40137,-99.17173,$699.00 
9/22/2022,"3 Bedrooms, 2 blocks from Polanco - ALL RENOVATED!",Miguel Hidalgo,19.4418,-99.18402,"$1,560.00 "
9/22/2022,MASTER ROOM IN THE GREAT HOUSE,Miguel Hidalgo,19.40692,-99.18831,$914.00 
9/23/2022,INTIMATE & COMPLETE STUDIO IN ANZURES,Miguel Hidalgo,19.42887,-99.17651,$773.00 
9/23/2022,New Home sweet Home Roma/Condesa,Cuauhtémoc,19.41046,-99.16409,$899.00 
9/22/2022,Linda Habitación amueblada en Ciudad de México,Benito Juárez,19.37159,-99.1586,$350.00 
9/22/2022,Acogedor departamento en Coyoacán,Coyoacán,19.35711,-99.16049,$740.00 
9/23/2022,Casa Indigo in the Center DF groups until 29 Pers,Cuauhtémoc,19.44222,-99.14461,"$2,796.00 "
9/23/2022,HEART OF CONDESA  ART DECO BUILDING,Cuauhtémoc,19.41226,-99.16594,"$1,378.00 "
9/22/2022,Cómodo y espacioso loft en Coyoacán,Coyoacán,19.35585,-99.16315,"$1,580.00 "
9/22/2022,Amplio y luminoso loft en Coyoacán,Coyoacán,19.35353,-99.16299,"$1,580.00 "
9/23/2022,Business Suite BEIGE near Reforma,Cuauhtémoc,19.43059,-99.17073,"$1,098.00 "
9/22/2022,Coyoacan Historic Studio Apartment,Coyoacán,19.35358,-99.16948,$900.00 
9/23/2022,Business Suite ORANGE near Reforma,Cuauhtémoc,19.43059,-99.17073,"$1,098.00 "
9/23/2022,Amazing apartment Mexico City!!!,Cuauhtémoc,19.41909,-99.16043,"$2,796.00 "
9/22/2022,"5 rooms common areas, private residence",Coyoacán,19.3454,-99.16951,"$3,180.00 "
9/23/2022,Condesa Apartment in 1920s Landmarked Art Nouveau Mansion,Cuauhtémoc,19.4153,-99.16763,"$1,721.00 "
9/23/2022,"Stylish bachelor pad in La Roma, DF",Cuauhtémoc,19.40891,-99.16083,$799.00 
9/22/2022,5 min from CDMX´s airport,Venustiano Carranza,19.43949,-99.08769,$440.00 
9/22/2022,LOVELY LITTLE HOUSE COYOACAN,Coyoacán,19.34419,-99.16083,$740.00 
9/22/2022,Private rooms near old Coyoacan center,Coyoacán,19.34022,-99.15306,$375.00 
9/22/2022,Nice quiet room in a lovely house!!,La Magdalena Contreras,19.33009,-99.21418,$600.00 
9/23/2022,Coyoacan: Gorgeously bright 2BR flat with balcony!,Coyoacán,19.35341644,-99.16253662,$799.00 
9/23/2022,Departamento 2 dormitorios x Antara,Miguel Hidalgo,19.44178,-99.20202,"$3,095.00 "
9/23/2022,Polanco Concept Studio Loft...,Miguel Hidalgo,19.43573,-99.18955,$998.00 
9/23/2022,Your Home in Mexico City,Miguel Hidalgo,19.44336,-99.20072,"$1,232.00 "
9/22/2022,COYOACAN NICE ♥ FLAT !!,Coyoacán,19.35284,-99.1695,$950.00 
9/23/2022,#Incredible location & cozy home!!!,Cuauhtémoc,19.42198,-99.15906,"$1,498.00 "
9/22/2022,Nice and luminous apartment in Coyoacan,Coyoacán,19.34219,-99.15952,$740.00 
9/22/2022,Luxury Studio Apartment Palmas,Miguel Hidalgo,19.42503,-99.22601,$880.00 
9/22/2022,Walk to WTC from a Family Apartment in a Trendy Neighborhood,Benito Juárez,19.38777,-99.17532,"$2,000.00 "
9/23/2022,Beautiful restored 40s apartment in Polanco♥,Miguel Hidalgo,19.42993,-99.19266,"$1,064.00 "
9/23/2022,Stay like a local in Roma Norte,Cuauhtémoc,19.4191,-99.15904,"$1,697.00 "
9/23/2022,Charming Apt in the best location,Cuauhtémoc,19.41416,-99.1568,"$1,050.00 "
9/23/2022,In the heart of Polanco,Miguel Hidalgo,19.43242,-99.19045,"$2,500.00 "
9/23/2022,beatiful two bedroom apartment,Cuauhtémoc,19.41121,-99.15957,"$1,811.00 "
9/23/2022,PASEO DE LA REFORMA+GYM+POOL,Cuauhtémoc,19.43339,-99.15467,"$1,441.00 "
9/23/2022,"CENTER, SPACIOUS  SECURE, Tours 306",Cuauhtémoc,19.43432,-99.14581,"$1,438.00 "
9/23/2022,lovely apartment in the heart of CDMX,Cuauhtémoc,19.42914772,-99.15665436,$800.00 
9/23/2022,Departamento en Polanco 3 recamaras,Miguel Hidalgo,19.43716,-99.20436,"$2,162.00 "
9/22/2022,Studio con servicios incluidos,Miguel Hidalgo,19.40303,-99.24273,$743.00 
9/22/2022,Bright and beautiful apt Narvarte,Benito Juárez,19.38212,-99.15361,"$1,493.00 "
9/23/2022,"Habitación bien iluminada, espaciosa y céntrica.",Benito Juárez,19.39284,-99.16858,$450.00 
9/22/2022,Contemporary House with Jacuzzi in San Angel,Álvaro Obregón,19.34948,-99.19381,"$5,000.00 "
9/23/2022,Auténtico departamento Art Deco en La Roma,Cuauhtémoc,19.40561382,-99.16012365,$666.00 
9/23/2022,"Condesa Moderno Loft, alberca, gym y excelente internet...  Ideal Ejecutivos",Cuauhtémoc,19.41689,-99.17792,"$1,850.00 "
9/22/2022,Apartment for your Pleasure or Business Trip (A),Miguel Hidalgo,19.45688,-99.21323,$898.00 
9/23/2022,Amazing Loft @ Iconic Building R27,Cuauhtémoc,19.43488,-99.15107,"$1,997.00 "
9/22/2022,Comfy room in Polanco,Miguel Hidalgo,19.436834,-99.207855,$700.00 
9/23/2022,Feel like in your own apartment,Cuauhtémoc,19.42054,-99.17074,"$1,000.00 "
9/23/2022,"Cozzy Studio In Condesa, Mexico DF",Cuauhtémoc,19.4061,-99.16957,$916.00 
9/23/2022,Apartment in the Historic District,Cuauhtémoc,19.43815,-99.13644,"$2,796.00 "
9/23/2022,Luxury apartments in Roma/Condesa,Cuauhtémoc,19.41767,-99.16652,"$2,500.00 "
9/23/2022,Gorgeous 2 BR furnished loft,Benito Juárez,19.39294,-99.17416,"$1,499.00 "
9/23/2022,GREAT PLACE TO STAY @ POLANCO MEX,Miguel Hidalgo,19.42887,-99.17651,$714.00 
9/22/2022,Big bedroom by San Angel,Álvaro Obregón,19.34028,-99.20049,$250.00 
9/22/2022,Nice location in MexicoCity,Álvaro Obregón,19.37979,-99.25281,"$1,040.00 "
9/22/2022,Low-price boutique apartment 9 min from Polanco,Miguel Hidalgo,19.44975,-99.18099,$747.00 
9/23/2022,BRIGHT & MODERN TWO LEVEL PENTHOUSE,Cuauhtémoc,19.42589,-99.16634,"$1,552.00 "
9/23/2022,Luxury Studios in Roma/Condesa,Cuauhtémoc,19.418,-99.16532,"$2,250.00 "
9/22/2022,The greatest location in Downtown,Cuauhtémoc,19.42843,-99.13772,$660.00 
9/22/2022,APARTMENT NEAR SANTA FE MEXICO CITY,Cuajimalpa de Morelos,19.36905,-99.29672,"$1,190.00 "
9/22/2022,Short-Term Room w/airport shuttle,Coyoacán,19.33739,-99.12417,$873.00 
9/23/2022,Room for rent in Mexico City,Miguel Hidalgo,19.39969,-99.17173,$500.00 
9/23/2022,HABITACIÓN CENTRICA,Cuauhtémoc,19.417,-99.15975,$559.00 
9/22/2022,GREAT LOCATED PRV8 ROOM!!,Benito Juárez,19.37252,-99.14269,$600.00 
9/22/2022,Cultural area of Mexico City,Coyoacán,19.30729,-99.16962,$400.00 
9/22/2022,Comfortable room with dinning room,Coyoacán,19.35284,-99.1635,$550.00 
9/23/2022,Cuarto en renta,Cuauhtémoc,19.40924,-99.16619,"$3,994.00 "
9/22/2022,SUITES BOSQUES MEDICA SUR,Coyoacán,19.29966,-99.15624,$495.00 
9/22/2022,San Angel  Inn # 1,Álvaro Obregón,19.35058,-99.19749,$600.00 
9/23/2022,Excellent location renovated Apt. Roma/Condesa 1,Cuauhtémoc,19.4171,-99.1725,"$1,400.00 "
9/23/2022,En el corazón de la escandón,Miguel Hidalgo,19.40103,-99.17618,$450.00 
9/23/2022,Nice spacious apartment in Condesa,Cuauhtémoc,19.40623,-99.17141,"$1,298.00 "
9/23/2022,Best Location - HISTORIC CENTER REFORMA SECURE 105,Cuauhtémoc,19.43432,-99.14581,$810.00 
9/23/2022,Penthouse with terrace in Colonia Roma by Condesa,Cuauhtémoc,19.41232,-99.16073,$773.00 
9/23/2022,Colonial Suite,Cuauhtémoc,19.43794,-99.13644,"$1,977.00 "
9/23/2022,Best Views in the heart of Condesa,Cuauhtémoc,19.4098,-99.17851,"$1,897.00 "
9/23/2022,Independent stay near Independence Angel - Reforma,Cuauhtémoc,19.43211,-99.16912,$559.00 
9/22/2022,ONE ROOM LOFT AT LOMAS DE CHAPULTEPEC,Miguel Hidalgo,19.43293,-99.21078,$750.00 
9/22/2022,SPEED WiFi Apartment -Olloqui Park near Coyoacan,Benito Juárez,19.36229,-99.17355,$680.00 
9/23/2022,Penthouse bohemio en el corazón de la ciudad,Cuauhtémoc,19.43315,-99.163,"$1,705.00 "
9/22/2022,Cozy loft near park,Miguel Hidalgo,19.41245,-99.18961,"$1,280.00 "
9/23/2022,GREAT VIWE WITH GREAT PEOPLE,Miguel Hidalgo,19.41239,-99.18398,$700.00 
9/23/2022,Loft in the fun part of Condesa,Cuauhtémoc,19.41059,-99.17501,"$1,252.00 "
9/23/2022,Casa El Santo,Cuauhtémoc,19.43815,-99.13644,"$1,378.00 "
9/23/2022,Nice Loft in the heart of Polanco,Miguel Hidalgo,19.43215,-99.18851,"$1,690.00 "
9/22/2022,"casa en el sur, zona coyoacan",Coyoacán,19.31669,-99.16917,$208.00 
9/22/2022,Room in new apartment of 1250ft²,Benito Juárez,19.39507,-99.15226,$350.00 
9/22/2022,PRIVATE BEDROOM SANTA FE - CUAJIMALPA,Cuajimalpa de Morelos,19.36898,-99.29595,$880.00 
9/23/2022,Awesome Reforma Avenue Apartment,Cuauhtémoc,19.43294,-99.15448,"$1,298.00 "
9/22/2022,"Villa María, Heart of Coyoacan",Coyoacán,19.35418,-99.16338,"$1,036.00 "
9/22/2022,nice rooms in nice centric house,Miguel Hidalgo,19.44358,-99.21206,$991.00 
9/23/2022,Art Deco in Condesa King,Cuauhtémoc,19.41356,-99.17586,"$1,398.00 "
9/23/2022,Beautiful Hideaway in Historic Building Across from the Park,Cuauhtémoc,19.42018,-99.15945,"$3,175.00 "
9/23/2022,2 Bedrooms Apt with Balcony,Cuauhtémoc,19.4218,-99.16474,"$2,616.00 "
9/23/2022,Very cool apartment with terrace in Roma Norte,Cuauhtémoc,19.41441,-99.16323,"$2,194.00 "
9/22/2022,RECAMARA EN BONITA CASA EN CONDOMIN,Tlalpan,19.29005,-99.13694,$287.00 
9/22/2022,Amplio espacio con 2 habitaciones.,Coyoacán,19.34347,-99.16108,"$1,160.00 "
9/22/2022,Private Clean & Cozy Loft-60 Mg WFi,Benito Juárez,19.37762,-99.15932,$890.00 
9/22/2022,Two rooms in Narvarte apartment,Benito Juárez,19.39561,-99.15013,$250.00 
9/22/2022,1BR Studio in the heart of Coyoacan,Coyoacán,19.34706,-99.16568,$650.00 
9/23/2022,BR4B2.5BED6Spacious&Comfortable TownHouseRomaNorte,Cuauhtémoc,19.4202,-99.16906,"$2,729.00 "
9/23/2022,Luxury Apartments in Roma/Condesa,Cuauhtémoc,19.41728,-99.16635,"$2,500.00 "
9/23/2022,Habitación y estudio con TV,Miguel Hidalgo,19.40953,-99.18697,$660.00 
9/22/2022,Cozy Studio with terrace in Coyoacan,Coyoacán,19.3439,-99.16784,$600.00 
9/22/2022,Charming room Center Coyoacan FRIDA,Coyoacán,19.33753,-99.15454,$500.00 
9/22/2022,Santa Fe Luxury High-rise City View w 2 King Beds,Cuajimalpa de Morelos,19.35984,-99.27943,"$2,399.00 "
9/23/2022,Amazing 2BR in Condesa with fantastic City View,Cuauhtémoc,19.4141,-99.17348,"$3,375.00 "
9/23/2022,In the heart of La Condesa,Cuauhtémoc,19.41397,-99.17491,$360.00 
9/23/2022,Master bedroom  big apartment Condesa México City,Cuauhtémoc,19.40759,-99.17253,$920.00 
9/23/2022,A small independent space,Miguel Hidalgo,19.41633,-99.18026,$540.00 
9/23/2022,"15th floor apartment Roma Norte, Mexico City",Cuauhtémoc,19.42044,-99.16682,"$1,394.00 "
9/22/2022,CercaWTC Roma Polanco StaFe Napoles,Álvaro Obregón,19.39182,-99.19455,$500.00 
9/23/2022,"Bright, quiet, clean, centric, garden view",Benito Juárez,19.39551,-99.17676,$220.00 
9/22/2022,Great apartment Mexico city center,Cuauhtémoc,19.44551,-99.15605,$920.00 
9/22/2022,Suite Margrit,Coyoacán,19.35557365,-99.16584015,"$2,470.00 "
9/23/2022,Sunny room + balcony in classic house,Benito Juárez,19.39567,-99.17694,$246.00 
9/22/2022,Comfortable Room in Excellent Location.,Benito Juárez,19.39052,-99.15944,$447.00 
9/22/2022,Estudio  con baño privado. Entrada Independiente,Benito Juárez,19.37496,-99.17334,$335.00 
9/23/2022,Cute apartment by WTC,Benito Juárez,19.39664,-99.17516,$846.00 
9/22/2022,♡50% Off Dtown Terrace & Kitchen Speed Up 100 MBPS,Venustiano Carranza,19.41833,-99.11802,"$1,257.00 "
9/23/2022,Cuarto en la Juárez,Cuauhtémoc,19.42793,-99.15546,$650.00 
9/22/2022,"1 BR, queen size bed, security 24h, fast internet",Benito Juárez,19.37892,-99.1889,$853.00 
9/23/2022,Colonial Terrace,Cuauhtémoc,19.43815,-99.13644,"$1,398.00 "
9/23/2022,Luxury Studios in Roma/Condesa,Cuauhtémoc,19.41856,-99.16593,"$2,250.00 "
9/23/2022,Entire Apartment in Colonia Centro,Cuauhtémoc,19.42906,-99.14615,$739.00 
9/22/2022,Bello Departamento Parques Polanco,Miguel Hidalgo,19.44181,-99.18803,"$1,400.00 "
9/22/2022,"Villa Patricia, Heart of Coyoacan",Coyoacán,19.35445,-99.16251,"$1,300.00 "
9/23/2022,Pretty Pretty Pretty Apt Indoor-Outdoor Space in La Roma,Cuauhtémoc,19.420214,-99.169487,"$2,596.00 "
9/22/2022,"Villa Conchita, Heart of Coyoacan",Coyoacán,19.35472,-99.16258,"$1,300.00 "
9/23/2022,Jack Kerouac's Cozy Den in Roma Norte,Cuauhtémoc,19.41321,-99.15943,$760.00 
9/23/2022,"Cozy, sunny room. Located in the heart of CDMX",Benito Juárez,19.39213,-99.17207,$400.00 
9/23/2022,,Miguel Hidalgo,19.43229,-99.19026,"$1,598.00 "
9/23/2022,Private Room on Condesa,Cuauhtémoc,19.41561,-99.1795,"$1,418.00 "
9/23/2022,nice private room on Condesa,Miguel Hidalgo,19.41783,-99.17982,"$1,258.00 "
9/23/2022,standar small room in condesa!!,Cuauhtémoc,19.41772,-99.17836,$879.00 
9/22/2022,No me Olvides,Coyoacán,19.35557,-99.16584,"$2,100.00 "
9/22/2022,Mex Suites Casa Azúl B&B,Benito Juárez,19.37748,-99.18156,"$1,300.00 "
9/23/2022,Heart of the hippest hood in DF,Cuauhtémoc,19.40842,-99.17385,$333.00 
9/22/2022,50% off! Two room suite in Santa Fe,Cuajimalpa de Morelos,19.36045,-99.27996,$300.00 
9/23/2022,2 bedroom apt in Colonia Juarez,Cuauhtémoc,19.42644,-99.161,$998.00 
9/23/2022,Departamento Superior Roma/ Norte- Sanitized,Cuauhtémoc,19.42536,-99.16043,$719.00 
9/23/2022,Nice furnished apartmt in Mex City- Roma Norte,Cuauhtémoc,19.41961,-99.16729,"$1,358.00 "
9/22/2022,Cuarto en Lomas Virreyes con vista a Chapultepec,Miguel Hidalgo,19.42297,-99.20626,$910.00 
9/22/2022,WONDERFUL ROOM IN A HOUSE,Tlalpan,19.29362,-99.16224,$300.00 
9/23/2022,FURNISHED ROOM,Cuauhtémoc,19.41075,-99.17652,$200.00 
9/22/2022,Complete apartment w / elevator and parking,Miguel Hidalgo,19.440629,-99.16809,$674.00 
9/23/2022,"Muy amplia recámara con sala,  vestidor y baño",Tlalpan,19.29164,-99.16195,"$1,250.00 "
9/22/2022,Studio Downtown Historic Coyoacan,Coyoacán,19.34682,-99.16616,$650.00 
9/23/2022,Beautiful apartment nearJuárez/Roma/Zona Rosa,Cuauhtémoc,19.43319,-99.15964,"$7,988.00 "
9/22/2022,Lomas French Balcony,Miguel Hidalgo,19.41861,-99.21494,"$3,143.00 "
9/23/2022,Beautiful Cozy Private room RomaNte,Cuauhtémoc,19.42117,-99.16809,$590.00 
9/23/2022,PRECIOSO APARTAMENTO DE 70 M2,Benito Juárez,19.36295,-99.15335,$799.00 
9/23/2022,AMENITIES OPEN Trendy & Balcony Rooftop in POLANCO,Miguel Hidalgo,19.4374,-99.19049,"$2,896.00 "
9/23/2022,1 bedroom apaprtment hotel style service,Miguel Hidalgo,19.43661,-99.20527,"$1,212.00 "
9/22/2022,Departamento de Lujo en Polanco,Miguel Hidalgo,19.42962,-99.20321,"$1,280.00 "
9/23/2022,"3 Bedroom, Centre Personalized Tours, Pool Gym 328",Cuauhtémoc,19.43432,-99.14581,"$1,458.00 "
9/22/2022,Departamento Bosque de Duraznos,Miguel Hidalgo,19.40522,-99.24098,$900.00 
9/22/2022,luxury apartment in Palmas,Miguel Hidalgo,19.42512,-99.22595,"$1,503.00 "
9/23/2022,Private studio apartment Roma Sur authentic CDMX,Cuauhtémoc,19.40456,-99.16308,$950.00 
9/22/2022,apartamento de lujo en Palmas,Miguel Hidalgo,19.42485,-99.22614,"$1,237.00 "
9/22/2022,Luxury apartment in Bosques,Miguel Hidalgo,19.4017,-99.25329,"$1,780.00 "
9/23/2022,Room in a shared apartament,Cuauhtémoc,19.43338,-99.15891,$655.00 
9/23/2022,En el corazón de Reforma,Cuauhtémoc,19.4273,-99.16889,"$2,796.00 "
9/22/2022,SAN ANGEL INN  # 3  (SANITIZED).,Álvaro Obregón,19.35059,-99.1978,$389.00 
9/23/2022,Bonito Apartamento Art Déco en el Barrio Condesa,Cuauhtémoc,19.41104,-99.17168,"$1,038.00 "
9/23/2022,Eclectic Jungle: 4 bedrooms in beautiful ​​Polanco,Miguel Hidalgo,19.437281,-99.212929,"$1,539.00 "
9/23/2022,"Beautiful, sunny and airy apartment!",Cuauhtémoc,19.41896,-99.15508,"$1,449.00 "
9/22/2022,At the heart of Mexico City,Cuauhtémoc,19.42699,-99.1351,$403.00 
9/23/2022,Nice and cozy apartment Condesa,Cuauhtémoc,19.40696,-99.16899,"$1,700.00 "
9/22/2022,Pent House con alberca,Benito Juárez,19.36306,-99.16338,$800.00 
9/23/2022,Departamento PH  ideal para home office,Cuauhtémoc,19.43025,-99.17326,$450.00 
9/22/2022,Un lugar diferente en la CDMX,Tlalpan,19.29548,-99.19127,"$3,200.00 "
9/22/2022,Habitación bonita en casa en zona residencial,Tlalpan,19.30177,-99.12838,$550.00 
9/23/2022,"♡ 50% Off Polanco King Size, 60” Tv & Fast Wifi",Miguel Hidalgo,19.4366,-99.19059,"$4,972.00 "
9/23/2022,Condesa penthouse with iconic views of Polanco,Cuauhtémoc,19.40905994,-99.18165386,"$2,866.00 "
9/23/2022,Habitacion Privada S. Miguel Chap.,Miguel Hidalgo,19.40755,-99.1864,"$1,098.00 "
9/22/2022,Lovely Room in Good Old Coyoacan (Agave Room),Coyoacán,19.35291,-99.16764,$700.00 
9/22/2022,2 bed Suite near Coyoacan - WiFi,Benito Juárez,19.37781,-99.15996,$499.00 
9/23/2022,(4)Full Apartment in Colonia Roma close to Condesa,Cuauhtémoc,19.41411415,-99.16283879,$559.00 
9/22/2022,Apto 2 dorm y park Sur Cd. Mex  :),Tlalpan,19.28849,-99.13014,$360.00 
9/22/2022,La casa del Parque,Tlalpan,19.28901,-99.14271,$290.00 
9/23/2022,three bedroom apartment Polanco,Miguel Hidalgo,19.43792,-99.19647,"$2,137.00 "
9/23/2022,CHIC APARTMENT in the heart of CDMX w/RoofGarden,Cuauhtémoc,19.43326,-99.16806,$863.00 
9/22/2022,Comfy room in Secured Building,Álvaro Obregón,19.33744,-99.20311,$650.00 
9/22/2022,Cozy Room close to Everything (Plaza Delta),Benito Juárez,19.39628,-99.15343,$300.00 
9/23/2022,"Great location, amazing neighborhood: Downtown MX",Cuauhtémoc,19.43107,-99.14473,$950.00 
9/22/2022,Book´s Nest - Nido del Bibliotecario. Casita,Coyoacán,19.35398,-99.14778,$951.00 
9/22/2022,Amazing apartment near Santa Fe,Cuajimalpa de Morelos,19.35777,-99.28444,"$1,000.00 "
9/22/2022,DEPARTAMENTOS AMUEBLADOS,Coyoacán,19.35720798,-99.16538181,$900.00 
9/23/2022,Private RoofTop  Walking-distance Neighborhood,Cuauhtémoc,19.41624,-99.15748,"$1,404.00 "
9/23/2022,Great apartent in the hearth of the city,Cuauhtémoc,19.42587,-99.15385,"$1,121.00 "
9/23/2022,ESPACIOSA HABITACIÓN CON BAÑO EN ROMA NORTE,Cuauhtémoc,19.41325,-99.15733,$707.00 
9/22/2022,Cozy room in great area,Coyoacán,19.35226,-99.16233,$400.00 
9/23/2022,Polanco 2BR with WiFi & parking,Miguel Hidalgo,19.43395,-99.20611,"$3,051.00 "
9/23/2022,Lovely sunny flat,Miguel Hidalgo,19.41304,-99.18398,"$1,500.00 "
9/22/2022,Beauty & New Apartment,Miguel Hidalgo,19.45349,-99.18398,"$1,429.00 "
9/22/2022,Mexico Vacation Rental Property,Coyoacán,19.33598,-99.1238,"$2,264.00 "
9/23/2022,Amazing three bedrooms apartment in Condesa,Cuauhtémoc,19.40573,-99.1709,"$2,400.00 "
9/23/2022,Habitacion Privada en la Condesa,Cuauhtémoc,19.40662,-99.17301,"$1,598.00 "
9/23/2022,Amazing loft in Colonia del Valle,Benito Juárez,19.39552,-99.16388,$600.00 
9/23/2022,Flat in the heart of La Condesa,Cuauhtémoc,19.41035,-99.17145,"$2,187.00 "
9/22/2022,Gay UNAM Room,Coyoacán,19.32944,-99.16091,$200.00 
9/23/2022,Loft en un hermoso edificio histórico renovado,Cuauhtémoc,19.43131,-99.15203,"$2,000.00 "
9/22/2022,Beautiful Típical Mexican House with roof garden,Benito Juárez,19.37819,-99.16773,"$1,200.00 "
9/22/2022,504 Cozy  A/C apartment downtown! Rooftop,Cuauhtémoc,19.428986,-99.134689,$522.00 
9/22/2022,"506 Great Location, A/C apartment",Cuauhtémoc,19.428986,-99.134689,$699.00 
9/22/2022,"EASY ACCES, GREAT SPACES AND 2 BIKES FOR FREE!",Miguel Hidalgo,19.42489,-99.17724,"$2,000.00 "
9/22/2022,SAFE PENTHOUSE W/ HUGE TERRACE,Cuauhtémoc,19.42876,-99.13445,$750.00 
9/23/2022,Deluxe room at heart of Mexico City,Cuauhtémoc,19.40338,-99.16555,$600.00 
9/22/2022,Casita en Coyoacán,Coyoacán,19.35362,-99.1477,$991.00 
9/22/2022,Recamara con entrada independiente,Tlalpan,19.26894,-99.17053,$428.00 
9/23/2022,Pretty room in beautiful apartment!,Cuauhtémoc,19.41156,-99.15786,$388.00 
9/22/2022,Habitaciòn privada,Benito Juárez,19.39841,-99.13573,$450.00 
9/22/2022,Beautiful Antique/Luxury MEX-House,Coyoacán,19.35156,-99.16508,"$1,200.00 "
9/22/2022,El cuarto del jardín,Coyoacán,19.34447,-99.16036,$320.00 
9/23/2022,Industrial Inspired Rustic Loft Apartment,Cuauhtémoc,19.4106,-99.17732,"$4,972.00 "
9/23/2022,Cuarto Blanco Beautiful prívate Bedroom with bath,Cuauhtémoc,19.40693,-99.17778,"$1,200.00 "
9/22/2022,apartment in Bosques,Miguel Hidalgo,19.4053,-99.24144,$931.00 
9/23/2022,Mira pasar la ciudad en este encantador loft lleno de plantas y libros,Cuauhtémoc,19.42663,-99.1608,"$1,869.00 "
9/22/2022,♡ 50% Off Home Office Private Apt. Up to 100 mbps!,Venustiano Carranza,19.41731,-99.1196,"$1,200.00 "
9/23/2022,Suite 3 - Suites Condesa Mexico,Cuauhtémoc,19.40904,-99.17327,$800.00 
9/22/2022,Confortable habitacion en Coyoacan,Coyoacán,19.35744,-99.15411,$420.00 
9/22/2022,Bright and beautiful room Narvarte,Benito Juárez,19.38266,-99.15167,$550.00 
9/22/2022,I lend to you my flat for days:),Iztacalco,19.39981,-99.09551,$505.00 
9/23/2022,Historic Mansion - Modern Quirky Duplex,Cuauhtémoc,19.43345,-99.13832,"$1,173.00 "
9/22/2022,French Mansion in Coyoacan (Suite Sabines),Coyoacán,19.34601,-99.16372,"$2,000.00 "
9/23/2022,1 habitación para 1 o 2 personas .,Benito Juárez,19.39286,-99.18249,$499.00 
9/23/2022,Modern/Secure Beautiful 2 Bed apartment in Polanco,Miguel Hidalgo,19.43801,-99.19121,"$1,398.00 "
9/23/2022,Beautyfull house in Condesa,Cuauhtémoc,19.40802,-99.17856,"$1,578.00 "
9/23/2022,"Apartment in Roma, Mexico City",Cuauhtémoc,19.41066,-99.16193,$359.00 
9/23/2022,"WTC Napoles, ideal Business Trip",Benito Juárez,19.39507,-99.17451,"$2,277.00 "
9/23/2022,NIce & cozy apt in La Roma /wifi 180 mbps,Cuauhtémoc,19.4042,-99.16285,"$1,520.00 "
9/23/2022,Nice Studio in Condesa,Cuauhtémoc,19.41243,-99.17499,$499.00 
9/23/2022,Casa de huespedes.  Bed & Breakfast,Cuauhtémoc,19.42178345,-99.16834259,"$1,098.00 "
9/23/2022,"Habitación en Amsterdam, Mexico City",Cuauhtémoc,19.413349,-99.170555,$479.00 
9/23/2022,White Loft,Miguel Hidalgo,19.39811,-99.1822,$899.00 
9/23/2022,メキシコシティの革命記念塔付近のホステルです。,Cuauhtémoc,19.43883,-99.15283,$300.00 
9/23/2022,Beautiful apartment in Condesa,Cuauhtémoc,19.41708,-99.1769,"$1,598.00 "
9/23/2022,"Roma/Condesa, Apt 2 habitaciones",Cuauhtémoc,19.41808,-99.1721,"$1,717.00 "
9/23/2022,Hermosa casita en la Colonia Roma,Cuauhtémoc,19.41741,-99.16523,"$1,480.00 "
9/23/2022,"Big iIluminated nice bedroom, La Condesa Mex. City",Cuauhtémoc,19.40706,-99.17451,$350.00 
9/23/2022,Colonial Terrace Double,Cuauhtémoc,19.43815,-99.13644,"$2,967.00 "
9/23/2022,Cozy Loft Studio-Apartment C7,Cuauhtémoc,19.40735,-99.17363,"$1,664.00 "
9/23/2022,Viva la Vida in a Sunny Modern Apartment in New Polanco,Miguel Hidalgo,19.44357,-99.20401,"$2,355.00 "
9/23/2022,Sunny spacious apartment in the heart of Condesa,Cuauhtémoc,19.4096,-99.16946,"$2,336.00 "
9/22/2022,"GREAT VIEW, GREAT APARTMENT!",Cuauhtémoc,19.42374,-99.1763,"$1,440.00 "
9/23/2022,1960s-Style Loft with a Lap Pool in an Art Deco Neighborhood,Cuauhtémoc,19.43386,-99.15124,"$2,297.00 "
9/22/2022,"Camelia, Mexico City",Álvaro Obregón,19.35098,-99.18427,$650.00 
9/23/2022,COZY MODERN ROOM ( Monterrey Room Condesa Haus ),Cuauhtémoc,19.40936,-99.17693,"$1,976.00 "
9/23/2022,Bonito departamento en la Condesa,Cuauhtémoc,19.41694,-99.17877,"$1,398.00 "
9/23/2022,Beautiful chill-appart in Condesa,Cuauhtémoc,19.40707,-99.17086,$700.00 
9/22/2022,Camelia 1 Inmejorable Calidad,Álvaro Obregón,19.35285,-99.18361,$550.00 
9/22/2022,"Inmejorable ubicación, tranquilidad",Álvaro Obregón,19.3534,-99.18188,$500.00 
9/23/2022,Neat space/urban view/best located.,Cuauhtémoc,19.40943,-99.16665,"$1,519.00 "
9/22/2022,Comfy and nice room in Coyoacan,Coyoacán,19.35445,-99.15053,$500.00 
9/23/2022,Beautiful 2BD AP Polanco's heart.,Miguel Hidalgo,19.42955,-99.19527,"$1,238.00 "
9/23/2022,habitaciones en renta,Cuauhtémoc,19.41073,-99.17182,$399.00 
9/23/2022,HABITACION EN DEPARTAMENTO ANTIGUO,Cuauhtémoc,19.40591,-99.16695,$599.00 
9/23/2022,(7)Full Apartment in Colonia Roma close to Condesa,Cuauhtémoc,19.41456,-99.16145,$642.00 
9/22/2022,Your oasis in the heart of Coyoacan,Coyoacán,19.34794,-99.15955,"$2,600.00 "
9/22/2022,TRENDY APARTMENT IN DEL VALLE AREA,Benito Juárez,19.38688,-99.14789,$690.00 
9/23/2022,Charming loft. Excelent location.,Cuauhtémoc,19.43638,-99.16074,$901.00 
9/23/2022,great location in condesa trendy for home officce,Cuauhtémoc,19.40777,-99.1778,"$1,071.00 "
9/23/2022,(9)Full Apartment in Colonia Roma close to Condesa,Cuauhtémoc,19.41253,-99.16283,$625.00 
9/23/2022,"1st , Private Room Condesa - Roma",Cuauhtémoc,19.41869,-99.17077,$364.00 
9/23/2022,Private room excelent location,Cuauhtémoc,19.42471,-99.15656,$299.00 
9/23/2022,Excellent Furnished  Suite,Cuauhtémoc,19.42517,-99.16041,$799.00 
9/22/2022,Aparthotel La Casa de Art!,Coyoacán,19.34772,-99.16157,"$1,500.00 "
9/23/2022,Private room Colonia Napoles WTC,Benito Juárez,19.39691,-99.17704,$275.00 
9/23/2022,Cozy room in modern flat in Condesa,Cuauhtémoc,19.41266,-99.17761,$519.00 
9/23/2022,Sunny Ample New Flat in Narvarte,Benito Juárez,19.3982,-99.15664,"$1,028.00 "
9/22/2022,Unique Room in the Centric Polanco District,Miguel Hidalgo,19.42964,-99.20166,"$3,801.00 "
9/23/2022,18th Century Apartment,Cuauhtémoc,19.43815,-99.13644,"$1,398.00 "
9/22/2022,Cuartos en Lomas de Tarango,Álvaro Obregón,19.36394,-99.2194,"$2,000.00 "
9/23/2022,Nice apartment in colonia Roma,Cuauhtémoc,19.42216,-99.16518,$799.00 
9/23/2022,"Cozy apart. in heart of City, Zona Rosa",Cuauhtémoc,19.4276,-99.16541,"$1,127.00 "
9/23/2022,Luxury Apt. W/ Best View in Mexico,Miguel Hidalgo,19.43243,-99.20933,"$5,991.00 "
9/23/2022,3rd Fl. Private Condesa - Roma,Cuauhtémoc,19.41909,-99.17242,$340.00 
9/23/2022,Great place to be in Roma/Condesa area!,Cuauhtémoc,19.41031,-99.16344,"$1,138.00 "
9/22/2022,"Big, charming house with garden, 5min. to Santa Fe",Cuajimalpa de Morelos,19.34135,-99.30733,"$1,500.00 "
9/23/2022,"Sunny & comfy flat at Roma, Mexico city",Cuauhtémoc,19.40383,-99.16007,"$1,100.00 "
9/22/2022,Independent apartment just by UNAM,Coyoacán,19.33708,-99.18262,$500.00 
9/23/2022,"CITY CENTER LUXURY  QUIET 3 BR, TOURS 1126",Cuauhtémoc,19.43432,-99.14581,"$1,823.00 "
9/22/2022,"Private, Clean & Cozy Suite - WiFi",Benito Juárez,19.37608,-99.1612,$729.00 
9/22/2022,Loft super ubicado. Perfectamente Sanitizado,Benito Juárez,19.36556,-99.1875,$580.00 
9/23/2022,Beautiful 2BR townhouse Condesa/Roma,Cuauhtémoc,19.40708,-99.17031,"$1,438.00 "
9/23/2022,Beautiful Pent House with roof garden,Benito Juárez,19.37423,-99.17579,$727.00 
9/23/2022,L'OliveGorgeous studio. 5minWTC. Clean&Desinfected,Benito Juárez,19.39184,-99.17684,$950.00 
9/23/2022,"Loft con terraza, cerca Plaza Carso",Miguel Hidalgo,19.44244,-99.20502,$969.00 
9/23/2022,CDMX ★PH1★ in La Condesa,Cuauhtémoc,19.40821,-99.17053,"$3,224.00 "
9/23/2022,Beautiful Room in Condesa/Escandon,Cuauhtémoc,19.40741,-99.18053,$786.00 
9/22/2022,2B - Suite Casona San Angel  - 1BR/1BA Double,Álvaro Obregón,19.35172,-99.19159,$850.00 
9/23/2022,Personal Studio in Zona Rosa,Cuauhtémoc,19.42892,-99.16452,$819.00 
9/23/2022,Charming apartment Roma Norte,Cuauhtémoc,19.42344,-99.15666,"$1,270.00 "
9/22/2022,Habitación en condominio seguro,Tlalpan,19.26939,-99.15149,$600.00 
9/22/2022,4B - Suite Bazaar San Angel (1BR/1BA Double),Álvaro Obregón,19.35373,-99.19185,$850.00 
9/22/2022,"Santa Fe,Ibero,ITESM,Recamara",Cuajimalpa de Morelos,19.35457,-99.28723,$600.00 
9/22/2022,Top-floor flat with stunning private rooftop.,Benito Juárez,19.3612,-99.14729,$748.00 
9/22/2022,Mexico Down Town 142,Cuauhtémoc,19.44526,-99.16192,$400.00 
9/22/2022,Habitación con baño privado y televisión propia.,Coyoacán,19.34141,-99.13625,$475.00 
9/23/2022,"Stay at the heart of the CDMX, Condesa!",Cuauhtémoc,19.40885,-99.17599,$354.00 
9/22/2022,"Great apartment,excellent location",Benito Juárez,19.3707,-99.14364,"$1,400.00 "
9/22/2022,GREAT LOCATED PRV8 ROOM!!,Benito Juárez,19.37205,-99.14527,$500.00 
9/22/2022,Tiny Rooftop Home @ UNAM,Coyoacán,19.33576,-99.19106,$270.00 
9/22/2022,Habitación en céntrico departamento en la Narvarte,Benito Juárez,19.39387,-99.15242,$350.00 
9/22/2022,505 Deluxe A/C apt.❤️of the city!! Rooftop,Cuauhtémoc,19.428986,-99.134689,$774.00 
9/23/2022,Private Room in CDMX,Miguel Hidalgo,19.41415,-99.18207,$500.00 
9/23/2022,Apartment in the Colonia Roma,Cuauhtémoc,19.41423,-99.16359,$700.00 
9/23/2022,Cozy room in Condesa  @CasaNuevoLeon /23,Cuauhtémoc,19.41245,-99.17318,"$2,350.00 "
9/22/2022,"Villa Carmen, Heart of Coyoacan",Coyoacán,19.35473,-99.16258,"$1,130.00 "
9/22/2022,"Loft en Tepepan, Xoch. Al sur ciudad",Xochimilco,19.27308,-99.13647,$350.00 
9/23/2022,"Quiet, roomy, bright,with a garden view.",Benito Juárez,19.39509,-99.17629,$353.00 
9/23/2022,One of a kind loft+terrace great location,Miguel Hidalgo,19.40364,-99.18127,"$1,364.00 "
9/23/2022,Live La Condesa,Cuauhtémoc,19.42012,-99.17086,"$1,198.00 "
9/22/2022,Hermoso Departamento en Palmas,Miguel Hidalgo,19.42594,-99.22524,"$1,394.00 "
9/22/2022,Hostel Airport Mexico DF,Venustiano Carranza,19.4404,-99.07964,$607.00 
9/23/2022,"""Emma"" Excelente Estudio",Cuauhtémoc,19.4128,-99.15512,$537.00 
9/23/2022,"Amazing apart in Condesa, Famous Chilaquil corner",Cuauhtémoc,19.40849,-99.17562,$726.00 
9/22/2022,Habitación privada en Ciudad de México,Iztapalapa,19.36427,-99.13155,$353.00 
9/23/2022,Agradable departamento en la colonia Napoles.,Benito Juárez,19.39247,-99.17808,$847.00 
9/23/2022,メキシコシティのホステル,Cuauhtémoc,19.4372,-99.15464,$459.00 
9/23/2022,Perfect Apartment for Home Office or Get Away,Cuauhtémoc,19.41888,-99.16587,"$1,438.00 "
9/23/2022,"Park view, market and sunlight",Miguel Hidalgo,19.4032,-99.17654,$939.00 
9/23/2022,Centro CDMX base for work office or tourism.,Cuauhtémoc,19.42751,-99.14041,$422.00 
9/22/2022,Room+Roof+Kitchen+WiFi,Tlalpan,19.29012,-99.13696,$600.00 
9/23/2022,Departamento División del Norte 327,Benito Juárez,19.39409,-99.1687,"$1,250.00 "
9/22/2022,Beautiful one bedroom apartment,Miguel Hidalgo,19.42404,-99.2254,"$1,040.00 "
9/22/2022,Habitación en zona exclusiva,Cuajimalpa de Morelos,19.36793,-99.29336,$600.00 
9/23/2022,Great Room /Private bathrom Condesa,Cuauhtémoc,19.40539,-99.17107,$392.00 
9/22/2022,Sweet studio,Tlalpan,19.26773,-99.16875,$520.00 
9/23/2022,"""New york style"" very private Basement room :)",Benito Juárez,19.39482,-99.17747,$205.00 
9/22/2022,Habitación privada con baño,Coyoacán,19.32618,-99.12908,$800.00 
9/23/2022,Luxury stylish townhouse  with pool and jacuzzi,Cuauhtémoc,19.42898145,-99.16885015,"$18,000.00 "
9/23/2022,Vigilancia 24 x 7 entre 2 parques con Balcón,Cuauhtémoc,19.41247,-99.17178,$950.00 
9/22/2022,Magnifica casa cerca de la Unam,Álvaro Obregón,19.33778,-99.19683,$400.00 
9/23/2022,"Artsy, wide aptm'nt near everything - 1",Cuauhtémoc,19.43994,-99.15244,$200.00 
9/23/2022,House near Condesa & metro for Foro Sol+Autodromo,Miguel Hidalgo,19.40602,-99.18098,$803.00 
9/23/2022,"Live La Rome, Mexico City",Cuauhtémoc,19.42364,-99.16445,"$1,623.00 "
9/22/2022,1C - Suite Flores de San Angel  - 1BR/1BA Double,Álvaro Obregón,19.35242,-99.19356,$850.00 
9/23/2022,Habitacion de lujo,Benito Juárez,19.37021,-99.17824,$439.00 
9/23/2022,Polanco near Antara 1 Bed 1.5 Bath,Miguel Hidalgo,19.44215,-99.20058,"$1,298.00 "
9/23/2022,MINIMALISTIC BOUTIQUE DOWNTOWN 2-B APARTMENT,Cuauhtémoc,19.43481,-99.14686,"$2,396.00 "
9/23/2022,Amplia Habitación en col condesa,Cuauhtémoc,19.41532,-99.17737,$650.00 
9/23/2022,Art Deco in Condesa Queen,Cuauhtémoc,19.41257,-99.17481,"$1,398.00 "
9/23/2022,REFORMA - Brand new 3BR @ Rio Danubio,Cuauhtémoc,19.43004,-99.16698,"$2,297.00 "
9/22/2022,Great located cozy room for one,Miguel Hidalgo,19.42489,-99.17724,$560.00 
9/22/2022,Cozy House Apartment,Coyoacán,19.34208,-99.18006,"$1,600.00 "
9/22/2022,Nova House,Venustiano Carranza,19.44329,-99.10947,$450.00 
9/22/2022,Santa Fe Arcos Bosques de las lomas,Cuajimalpa de Morelos,19.38599,-99.25322,$900.00 
9/22/2022,En Coyoacan/increíbles amenidades,Benito Juárez,19.36332,-99.16134,"$1,250.00 "
9/22/2022,Functional apartment great location,Benito Juárez,19.38291,-99.18071,$800.00 
9/22/2022,Apto. en el Centro de Tlalpan,Tlalpan,19.29414,-99.167,$410.00 
9/23/2022,CONDESA beautiful private room.,Cuauhtémoc,19.41344,-99.17465,"$1,255.00 "
9/23/2022,Cozy and convenient in Condesa,Cuauhtémoc,19.40698,-99.17366,$998.00 
9/22/2022,Luxury Apartment close to Santa Fe,Miguel Hidalgo,19.40535,-99.24306,$963.00 
9/23/2022,BEAUTIFUL APARTMENT IN ROMA NORTE,Cuauhtémoc,19.42013,-99.17011,"$1,000.00 "
9/23/2022,AMAZING & COMPLETE STUDIO IN ROMA NORTE,Cuauhtémoc,19.42013,-99.17011,$980.00 
9/22/2022,Apartment with spectacular view,Miguel Hidalgo,19.42818,-99.21038,"$2,400.00 "
9/23/2022,"Cómoda, espaciosa y linda con baño privado",Tlalpan,19.29647,-99.14472,$559.00 
9/23/2022,Sala de estar en DF,Cuauhtémoc,19.42006,-99.15327,$200.00 
9/22/2022,Luminoso y cómodo cuarto matrimonial en Coyoacán!,Coyoacán,19.34007,-99.13551,$400.00 
9/23/2022,Independent loft/studio,Cuauhtémoc,19.41425,-99.17508,$599.00 
9/22/2022,Cómodo y moderno espacio al sur de la ciudad!,Coyoacán,19.34055,-99.13604,$350.00 
9/22/2022,El lugar perfecto como en tu casa,Benito Juárez,19.38544,-99.14879,$650.00 
9/23/2022,"APARTMENT IN VINTAGE HOME, ROMA/CONDESA!",Cuauhtémoc,19.41727,-99.16668,"$1,500.00 "
9/23/2022,❤️ Apartamento en el barrio de la Condesa,Cuauhtémoc,19.41559,-99.17794,$399.00 
9/23/2022,Hospital 20 de noviembre  Universidad Panamericana,Benito Juárez,19.37162,-99.1767,$320.00 
9/23/2022,Gallery Apartment in La Condesa,Cuauhtémoc,19.40666,-99.17067,$579.00 
9/22/2022,Casa Rebollar San Miguel Chapultepec  6 personas,Miguel Hidalgo,19.40859,-99.18866,"$1,007.00 "
9/23/2022,Private Room in La Condesa,Cuauhtémoc,19.40703,-99.16888,$579.00 
9/22/2022,Vast serviced apartment in elegant neighbour,Miguel Hidalgo,19.42535,-99.22409,$580.00 
9/22/2022,SUPER SAVER GROUP DEAL - PERFECT FOR STUDENTS,Cuauhtémoc,19.42884,-99.13573,"$1,500.00 "
9/23/2022,Beautifull and Bright apartment in Narvarte,Benito Juárez,19.39833,-99.14554,"$1,000.00 "
9/22/2022,Private BR in great neighborhood!,Tlalpan,19.29007,-99.13998,$320.00 
9/23/2022,Great Bedroom At Colonia del Valle,Benito Juárez,19.39988,-99.16079,$379.00 
9/23/2022,Habitación con balcón en la colonia Roma,Cuauhtémoc,19.41626,-99.1588,$400.00 
9/23/2022,Departamento Polanco Horacio,Miguel Hidalgo,19.43451,-99.2049,"$1,438.00 "
9/23/2022,Suite Room in Condesa @CasaNuevoLeon /11,Cuauhtémoc,19.41137,-99.17094,"$3,214.00 "
9/22/2022,Independent Room; Share Services; Near UNAM & Coyo,Coyoacán,19.34219,-99.17149,$230.00 
9/22/2022,Bed and breakfast luxury department,Benito Juárez,19.36796,-99.1843,"$1,642.00 "
9/23/2022,Great Loft Location,Cuauhtémoc,19.43688,-99.13927,$550.00 
9/22/2022,"Top location, Mexican Style!!! Cozy",Álvaro Obregón,19.34815,-99.19589,$594.00 
9/23/2022,"Recamada amplia con 2 camas, ROMA",Cuauhtémoc,19.41716,-99.15898,$500.00 
9/23/2022,Polanco/Angel Independencia Suite 4,Miguel Hidalgo,19.4319,-99.17463,$690.00 
9/22/2022,Beautiful cottage in country side ranch near CDMX.,Tlalpan,19.18808,-99.17278,"$1,629.00 "
9/23/2022,"Recamara baño privado 2 camas, ROMA",Cuauhtémoc,19.41865,-99.15942,$550.00 
9/23/2022,Departamento en Centro Histórico,Cuauhtémoc,19.43071,-99.14293,$601.00 
9/23/2022,Classic & large apt @ elite Polanco,Miguel Hidalgo,19.42846,-99.19295,"$1,740.00 "
9/23/2022,"Bueno, bonito, accesible y ubicado!",Cuauhtémoc,19.42196,-99.15315,$699.00 
9/22/2022,Apartamento para Estudiantes o Visita Express,Coyoacán,19.3202,-99.10283,$200.00 
9/22/2022,Céntrico cuarto con baño y cocina (A3),Álvaro Obregón,19.39238,-99.19361,$350.00 
9/22/2022,Ap-2/Ideal for students in exchange,Gustavo A. Madero,19.51677,-99.1583,$495.00 
9/22/2022,Habitación en Campestre Churubus coyoacán,Coyoacán,19.34668,-99.13195,$400.00 
9/23/2022,"The Palms, Col Roma, Mexico´s heart",Cuauhtémoc,19.42191,-99.15714,"$2,796.00 "
9/23/2022,Amazing flat in Condesa!,Cuauhtémoc,19.40765,-99.16912,"$1,398.00 "
9/23/2022,Recámara amueblada para 1 chica,Miguel Hidalgo,19.40004,-99.1769,"$1,000.00 "
9/23/2022,Visit Parque México from a Chic Home in Hipódromo Condesa,Cuauhtémoc,19.41407,-99.16664,$901.00 
9/22/2022,Cuarto en departamento seguro,Coyoacán,19.30632,-99.14843,$300.00 
9/23/2022,RIGHT@THE HEART OF THE HIGHEND OF MEXICO CITY,Miguel Hidalgo,19.44299,-99.20131,"$1,298.00 "
9/22/2022,Nice room near UNAM,Álvaro Obregón,19.34184,-99.18679,$490.00 
9/23/2022,Habitación Cama Matrimonial / Room at Nápoles,Benito Juárez,19.39566,-99.17415,$370.00 
9/23/2022,"Condesa, vintage cool, 2BDR apt, super location",Cuauhtémoc,19.4096,-99.1708,"$1,686.00 "
9/23/2022,A really spacious room at La Roma!,Cuauhtémoc,19.40579,-99.16305,$287.00 
9/23/2022,Landmark apartment in Mexico City,Cuauhtémoc,19.42762,-99.15173,"$3,000.00 "
9/23/2022,Quiet and private room in Polanco!,Miguel Hidalgo,19.43405,-99.20873,"$1,200.00 "
9/23/2022,En el corazón de POLANCO.  La mejor zona del D.F.,Miguel Hidalgo,19.43417,-99.18702,$780.00 
9/23/2022,Place in Condesa in the Chilaquil corner,Cuauhtémoc,19.40892,-99.17786,$656.00 
9/23/2022,Estudio en edificio artdéco.,Cuauhtémoc,19.41043,-99.1696,"$1,464.00 "
9/22/2022,Historic Coyoacan loft private bathroom kitchenett,Coyoacán,19.34758,-99.16607,$700.00 
9/22/2022,¡HERMOSO DEPARTAMENTO COMPLETO Y SEGURO! CDMX,Benito Juárez,19.3829,-99.16217,"$1,757.00 "
9/22/2022,LOCATION & COMFORT-1BR STUDIO-SANTA FE MEXICO CITY,Cuajimalpa de Morelos,19.35716057,-99.28366852,"$1,700.00 "
9/22/2022,Departamento zona sur con seguridad,Tlalpan,19.31059,-99.22404,"$1,600.00 "
9/22/2022,Gorgeous room in Mexico City South,La Magdalena Contreras,19.31103,-99.22533,$980.00 
9/23/2022,Cozy Studio near Museo Antropologia,Miguel Hidalgo,19.42728,-99.17808,$799.00 
9/23/2022,Mi casa es tu casa. Espacious 2 bedroom apartment.,Cuauhtémoc,19.41669,-99.15998,"$1,345.00 "
9/23/2022,Tu hogar en medio de la gran ciudad,Cuauhtémoc,19.40859,-99.17081,$699.00 
9/22/2022,Room for student near schools area,Xochimilco,19.27455,-99.12311,$250.00 
9/23/2022,Minimalist apartment in the heart of Santa Fe,Cuajimalpa de Morelos,19.35935,-99.27923,"$1,800.00 "
9/22/2022,Depa en Condesa a dos cuadras de metro Chapultepec,Miguel Hidalgo,19.41999,-99.17795,$410.00 
9/23/2022,Near Zona rosa,Cuauhtémoc,19.4269,-99.15899,$200.00 
9/23/2022,Corner Suite in Condesa  @CasaNuevoLeon/ 33,Cuauhtémoc,19.4114,-99.17308,"$2,750.00 "
9/22/2022,Rento dos habitaciones en  hermosa casa antigua,Benito Juárez,19.38572,-99.15948,"$1,245.00 "
9/22/2022,Cozy room in great house Del Valle,Benito Juárez,19.38448,-99.16472,$500.00 
9/22/2022,"Luxurious Apartment in Polanco, Mexico City",Miguel Hidalgo,19.43186,-99.20529,"$3,000.00 "
9/23/2022,"Location, location, location!",Cuauhtémoc,19.40853,-99.17663,$400.00 
9/23/2022,"Depa Sorpréndete Super Location, Parking",Cuauhtémoc,19.42743,-99.16115,$744.00 
9/22/2022,"Two bedroom Colonial home w/ 2 bath, patio, garden",Tlalpan,19.29349,-99.16261,$901.00 
9/22/2022,Departamento equipado con vista increible de CdMx,Azcapotzalco,19.47137,-99.16208,$982.00 
9/23/2022,Stardom spot in Roma Norte.,Cuauhtémoc,19.42202,-99.15982,"$1,498.00 "
9/22/2022,Beautiful BestApt Coyoacan (FKahlo),Coyoacán,19.35175,-99.16349,$786.00 
9/23/2022,"Lovely small bedroom with bath, excellent location",Miguel Hidalgo,19.40107,-99.17287,$445.00 
9/22/2022,Ideal for students in echange /D.F.,Gustavo A. Madero,19.51494,-99.15772,$495.00 
9/23/2022,Private room in excelent apartment,Cuauhtémoc,19.43168,-99.17102,$347.00 
9/23/2022,"Nice double bedroom with bath, excellent location",Miguel Hidalgo,19.401718,-99.171829,$550.00 
9/23/2022,ROMA NORTE 1 BEDROOM/ 2 BATH with 24 hour guard,Cuauhtémoc,19.41052,-99.16564,"$1,558.00 "
9/23/2022,Cozy duplex in the BEST location next to Reforma,Cuauhtémoc,19.42762,-99.17029,"$1,478.00 "
9/22/2022,Beautiful Studio In Coyoacán,Benito Juárez,19.36151,-99.16047,$661.00 
9/23/2022,Great Location! Entire Apartment!!,Cuauhtémoc,19.40356,-99.16637,$799.00 
9/23/2022,beautiful rooms in a vintage apartment,Miguel Hidalgo,19.4142,-99.18352,$700.00 
9/23/2022,Conveniente habitación en Santa Fe,Álvaro Obregón,19.38991,-99.2232,$550.00 
9/22/2022,Small Roof Department Private,Coyoacán,19.34152,-99.17035,$215.00 
9/23/2022,Lux appartment in Polanco!,Miguel Hidalgo,19.43996,-99.1911,"$1,398.00 "
9/22/2022,Private Room; Share Services. Near UNAM & Coyoacan,Coyoacán,19.34148,-99.17208,$230.00 
9/22/2022,Nice Loft en Santa Fe,Cuajimalpa de Morelos,19.35693,-99.2837,"$1,920.00 "
9/22/2022,French Mansion in the heart of Coyoacan,Coyoacán,19.34523,-99.16169,"$2,815.00 "
9/23/2022,DEPARTAMENTO CON GRAN TERRAZA,Cuauhtémoc,19.43693,-99.1586,$450.00 
9/22/2022,Rento departamento tipo loft POR AÑO o SEMESTRE,Tlalpan,19.27701,-99.21621,$700.00 
9/22/2022,Luminoso departamento al sur de la Ciudad,Tlalpan,19.27439,-99.16162,$810.00 
9/22/2022,SUITE BAÑO COCINA ACCESO INDEPENDIENTE A 5 SANTA F,Álvaro Obregón,19.34462,-99.2458,$395.00 
9/23/2022,Belle chambre ds Polanco 1 / 2 lits,Miguel Hidalgo,19.43325,-99.18953,$491.00 
9/23/2022,"Bring the Outdoors in at a Nature-Inspired, Stylish Space",Cuauhtémoc,19.41282,-99.1806,"$2,254.00 "
9/22/2022,Lighted room with private bathroom,Benito Juárez,19.38746,-99.18518,$350.00 
9/22/2022,Del Valle Acogedora Recámara! MUY BUENA UBICACION!,Benito Juárez,19.38447,-99.1682,$350.00 
9/23/2022,Private room in Polanco!,Miguel Hidalgo,19.43621,-99.20756,$880.00 
9/23/2022,Canopy View with High Speed Internet at Condesa,Cuauhtémoc,19.41264,-99.18101,"$2,254.00 "
9/22/2022,A mexican-comfortable room.,Benito Juárez,19.37456,-99.15804,$550.00 
9/22/2022,Coyoacan-Taxqueña Amazing Deal Home,Coyoacán,19.33876,-99.12435,$954.00 
9/23/2022,POLANCO 2 bed private room in polanco,Miguel Hidalgo,19.43488,-99.20777,$990.00 
9/23/2022,Pretty vintage apt. Great location,Cuauhtémoc,19.41219,-99.17542,"$1,200.00 "
9/23/2022,Excelent appt in the best location,Miguel Hidalgo,19.43423,-99.19199,$800.00 
9/22/2022,Amplio depto. cerca de UNAM CU,Coyoacán,19.30454,-99.1749,$700.00 
9/23/2022,One bedroom townhouse in Col Roma,Cuauhtémoc,19.42124,-99.1582,"$1,994.00 "
9/23/2022,"Closed to UNAM, Coyoacan 1bedroom",Coyoacán,19.34037,-99.1821,$400.00 
9/23/2022,Colonia Roma two bedroom apt,Cuauhtémoc,19.42291,-99.15653,"$2,588.00 "
9/22/2022,Acogedora Suite en la Condesa,Cuauhtémoc,19.43142,-99.13421,$360.00 
9/22/2022,rooftop private room with bathroom,Cuauhtémoc,19.45237,-99.15967,$500.00 
9/23/2022,"Steps from WTC (Del Valle). Minimalist, stylish.",Benito Juárez,19.39346,-99.16852,$899.00 
9/22/2022,Vacations Rental in Mexico City Coyoacan District,Coyoacán,19.33712,-99.12282,"$1,879.00 "
9/22/2022,Departamento pequeño para pareja o dos personas,Tlalpan,19.27982,-99.14226,$235.00 
9/23/2022,Great loft value for groups!,Miguel Hidalgo,19.43165,-99.19495,"$4,893.00 "
9/23/2022,✯ MASTER SUITES PRIME LOCATION ✯,Cuauhtémoc,19.42368,-99.17148,"$4,493.00 "
9/22/2022,Lindo cuarto en la zona de Coyoácan,Coyoacán,19.35409,-99.1566,$320.00 
9/22/2022,"PH Apartamento en el sur del D.F., Gran Sur",Coyoacán,19.30257,-99.16969,"$1,150.00 "
9/23/2022,COZY LOFT STUDIO (S2 Condesa Haus),Cuauhtémoc,19.4096,-99.17659,"$2,600.00 "
9/22/2022,"In front PARQUE HUNDIDO, great area",Benito Juárez,19.37983,-99.18054,$560.00 
9/22/2022,House of Light and Color Coyoacan.,Coyoacán,19.33419,-99.17605,$840.00 
9/23/2022,"Room 5 - Historical home, best location Roma Norte",Cuauhtémoc,19.42222,-99.15864,$442.00 
9/23/2022,"Big Window, Charming & Cozy Little Apt in La Roma",Cuauhtémoc,19.40972,-99.16036,$927.00 
9/23/2022,Close to main city ways,Benito Juárez,19.39658,-99.15178,$380.00 
9/22/2022,HABITACIÓN MÉXICO D.F SAN RAFAEL,Cuauhtémoc,19.4404,-99.16442,$600.00 
9/22/2022,Cozy home new refurbish,Miguel Hidalgo,19.39468,-99.24018,"$1,180.00 "
9/23/2022,WTC México Napoles.,Benito Juárez,19.39614,-99.17371,"$31,386.00 "
9/22/2022,"CENTRICO, HERMOSO y CON MUCHA LUZ",Benito Juárez,19.38683,-99.167,$600.00 
9/23/2022,Penthouse Juárez-Paseo dela Reforma,Cuauhtémoc,19.42598,-99.16616,$890.00 
9/23/2022,¡La mejor ubicación de la ciudad!,Cuauhtémoc,19.41672,-99.17636,$900.00 
9/23/2022,LuxuryApt | PrivateTerrace | Historic Center |Gym,Cuauhtémoc,19.4349,-99.14493,$983.00 
9/23/2022,Estudio en el corazón de Condesa,Cuauhtémoc,19.4156,-99.16655,$827.00 
9/22/2022,Experience Mexico City from an Artful Apartment,Benito Juárez,19.36301,-99.18067,"$1,163.00 "
9/23/2022,Room 1 taciturno. Cozy room with natural light.,Cuauhtémoc,19.42005,-99.17143,$395.00 
9/23/2022,Loft in front of Fine Arts Palace &PickUp Service,Cuauhtémoc,19.43456,-99.14467,$604.00 
9/22/2022,Dapartamento c/recamara privada y baño compartido,Coyoacán,19.30644,-99.12408,$600.00 
9/22/2022,Se renta habitación con baño,Álvaro Obregón,19.36149,-99.19071,$900.00 
9/22/2022,Nice room in Coyoacan,Coyoacán,19.35424,-99.15801,$350.00 
9/23/2022,Departamento Fuente de la Cibeles,Cuauhtémoc,19.41945,-99.16859,"$3,100.00 "
9/22/2022,Penthouse en colonia Nápoles-WTC,Benito Juárez,19.39029,-99.175,"$1,500.00 "
9/23/2022,Cozy double Room in Condesa @Casa Nuevo Leon /25,Cuauhtémoc,19.41159,-99.17343,"$2,350.00 "
9/22/2022,Studio for home office on a corner with green view,Benito Juárez,19.39397,-99.15858,$459.00 
9/22/2022,♡50% Off 2 Bedroom Terrace Apt High Speed 100 MBPS,Venustiano Carranza,19.41704,-99.11758,"$1,400.00 "
9/22/2022,♡ 50% Off Terrace Up 100 Mbps Speed Home Office,Venustiano Carranza,19.41717,-99.11929,"$1,200.00 "
9/22/2022,Family & Cozy Apartment Polanco CDMX 2bed&2bath,Miguel Hidalgo,19.43041,-99.20224,"$1,996.00 "
9/23/2022,Condesa! Feel at Home in CD.MX. best Neighborhood!,Cuauhtémoc,19.40514,-99.17413,"$1,336.00 "
9/23/2022,Condesa: Private room with bath,Cuauhtémoc,19.40933,-99.17221,$401.00 
9/23/2022,✯ 16 SUITES FOR GROUPS AT WTC! ✯,Benito Juárez,19.39422,-99.17611,"$3,395.00 "
9/23/2022,Private Room in Antique House @ Roma neighborhood,Cuauhtémoc,19.41481,-99.15519,$399.00 
9/23/2022,UNIQUE LOFT IN A COLONIAL SITE/ PRE-COLONIAL SITES,Cuauhtémoc,19.4393,-99.13705,$850.00 
9/22/2022,"Cozy bedroom near UNAM/CEPE coyoacán, Copilco",Coyoacán,19.33608,-99.17733,$207.00 
9/23/2022,Oficinas WTC Mexico Piso 20,Benito Juárez,19.39519,-99.1745,"$1,598.00 "
9/23/2022,Polanco - Accesible and quiet,Miguel Hidalgo,19.43969,-99.19221,$990.00 
9/22/2022,A Urban Oasis in Coyoacan-Frida Msm,Benito Juárez,19.36176,-99.16135,"$1,180.00 "
9/22/2022,Beautiful apartment in Coyoacan,Coyoacán,19.35031,-99.1748,$950.00 
9/23/2022,A privileged location with comfort and ease,Cuauhtémoc,19.42589,-99.16929,$659.00 
9/22/2022,Gorgeous apartment in Santa Fe,Álvaro Obregón,19.36481,-99.26237,"$1,800.00 "
9/22/2022,Private bedroom right in Downtown,Cuauhtémoc,19.42722,-99.13715,$700.00 
9/22/2022,Cuarto con dos camas y baño propio.,Benito Juárez,19.37126,-99.15728,$326.00 
9/23/2022,"IDEAL DESIGN HOUSE FOR FRIENDS, FAMILIES, BUSINESS",Cuauhtémoc,19.414568,-99.166451,"$8,130.00 "
9/22/2022,Private Room  South of the City,Tlalpan,19.28918,-99.13824,$557.00 
9/23/2022,Polanco one bedroom Apartment,Miguel Hidalgo,19.43812,-99.19738,"$1,338.00 "
9/23/2022,Apartamento nuevo y céntrico,Cuauhtémoc,19.43727,-99.15854,"$1,200.00 "
9/23/2022,Disfruta de la Condesa y Roma en un Loft con Balcón privado,Cuauhtémoc,19.41549,-99.17286,"$1,264.00 "
9/23/2022,Beautiful Suite in Great Location! (J),Miguel Hidalgo,19.43643,-99.18031,$817.00 
9/23/2022,Ideal for Social Distancing and safe.,Miguel Hidalgo,19.43592,-99.18721,$816.00 
9/22/2022,Cozy Apartment in the heart of Coyoacan,Coyoacán,19.34654,-99.16816,"$1,140.00 "
9/22/2022,SAN ANGEL INN # 2 (SANITIZED).,Álvaro Obregón,19.35084,-99.19742,$389.00 
9/22/2022,"Private room at charming B&B, South of MX City",Tlalpan,19.29832,-99.1164,$300.00 
9/22/2022,"Bright room in safe, well connected neighborhood",Benito Juárez,19.38422,-99.17081,$310.00 
9/23/2022,BEAUTIFUL ROOM AND GREAT LOCATION,Cuauhtémoc,19.41101,-99.1671,$550.00 
9/23/2022,Tranquila habitación independiente,Miguel Hidalgo,19.43112,-99.175,$300.00 
9/22/2022,"Cozy bedroom in B&B, South Mexico City",Tlalpan,19.29765,-99.11475,$250.00 
9/23/2022,Luxurious Pent House In Mexico City,Miguel Hidalgo,19.43699,-99.18877,"$6,989.00 "
9/23/2022,Artsy Bedroom Condesa,Cuauhtémoc,19.40872,-99.18109,$400.00 
9/23/2022,Cozy bedroom in Colonia Roma,Cuauhtémoc,19.42237,-99.15934,$700.00 
9/23/2022,Beautiful and brand new Suites! (S2),Miguel Hidalgo,19.43576,-99.18038,$994.00 
9/23/2022,Beautiful Suite in Great Location! (K2),Miguel Hidalgo,19.4369,-99.18237,$980.00 
9/22/2022,Casa XURU / Campestre Churubusco-Coyoacan,Coyoacán,19.34606,-99.13169,"$2,754.00 "
9/23/2022,Beautiful and brand new Suites! (E),Miguel Hidalgo,19.43549,-99.18178,"$1,500.00 "
9/23/2022,Beautiful and brand new Suites! JL,Miguel Hidalgo,19.43531,-99.18179,$804.00 
9/23/2022,Beautiful and brand new Suites! (B2),Miguel Hidalgo,19.43764,-99.18157,$990.00 
9/22/2022,Lovely flat near WTC!,Benito Juárez,19.38885,-99.17962,"$1,189.00 "
9/22/2022,Wonderful family-friendly house near Coyoacan,Coyoacán,19.33846,-99.12419,"$1,545.00 "
9/23/2022,"Mexico City, Polanco  No available anymore",Miguel Hidalgo,19.44355,-99.20134,"$1,450.00 "
9/22/2022,"SPECTACULAR LOFT, BEST LOCATION",Miguel Hidalgo,19.43257,-99.21289,"$1,530.00 "
9/23/2022,"2nd FL Private Condesa - Roma,",Cuauhtémoc,19.41935,-99.17288,$360.00 
9/22/2022,Private bedroom south of the city,Tlalpan,19.29125,-99.13799,$320.00 
9/23/2022,Cozy apartment w/ patio in la Roma!,Cuauhtémoc,19.41184,-99.15836,"$1,000.00 "
9/23/2022,Súper conveniente en la Roma,Cuauhtémoc,19.40768,-99.16315,$252.00 
9/23/2022,Cómodo cuarto en villa olímpica,Tlalpan,19.29984,-99.18617,$450.00 
9/22/2022,Welcome to The Palm House!! 1,Benito Juárez,19.36765,-99.18746,$540.00 
9/23/2022,Beautiful apartment in the Condesa,Cuauhtémoc,19.4061,-99.17376,"$1,440.00 "
9/23/2022,La Casa de Emma en la Roma,Cuauhtémoc,19.41278,-99.15589,"$2,340.00 "
9/23/2022,Departamento completo 3 habitaciones,Benito Juárez,19.37095,-99.18189,"$2,000.00 "
9/23/2022,GORGEOUS UNIQUE SPACIOUS IN THE HEART OF POLANCO,Miguel Hidalgo,19.42975,-99.19656,"$3,537.00 "
9/23/2022,Capsule Hostel Mexico City,Cuauhtémoc,19.42818,-99.16122,$245.00 
9/23/2022,Sunny Apartment in Colonia Del Valle,Benito Juárez,19.39525,-99.16465,"$1,398.00 "
9/23/2022,Beautiful and brand new Suites! (T),Miguel Hidalgo,19.43737,-99.1822,$869.00 
9/23/2022,Hermoso Loft en el centro de la CDMX!!!!,Cuauhtémoc,19.43491,-99.14579,$983.00 
9/23/2022,Cool new 2-bedroom apartment in Condesa,Cuauhtémoc,19.4079,-99.16921,"$2,131.00 "
9/22/2022,Lindo cuarto / Coyoacan,Coyoacán,19.35334,-99.15575,$320.00 
9/22/2022,Colonial Loft in San Angel,Álvaro Obregón,19.3485,-99.18429,"$1,260.00 "
9/23/2022,Departamento en  el corazón de la Roma Norte,Cuauhtémoc,19.42133,-99.15892,"$1,353.00 "
9/23/2022,Cuarto muy céntrico check in 24 hrs/10 min Reforma,Cuauhtémoc,19.43913,-99.16136,$555.00 
9/23/2022,Great located private room with patio near Reforma,Cuauhtémoc,19.42801933,-99.17231756,$650.00 
9/23/2022,Bueno-Bonito-Barato en la Roma,Cuauhtémoc,19.40555,-99.16471,$287.00 
9/23/2022,Departamento en la Roma Norte 2,Cuauhtémoc,19.41626,-99.15952,$837.00 
9/23/2022,Dream 2 bedroom apartment in the heart of Condesa,Cuauhtémoc,19.4165,-99.16735,"$2,570.00 "
9/22/2022,RECAMARA EN DEPARTAMENTO NUEVO Y UBICADO AL SUR,Benito Juárez,19.37651,-99.14062,$300.00 
9/22/2022,Capital Park Apartment in Narvarte,Benito Juárez,19.39016,-99.1516,"$1,600.00 "
9/22/2022,Private rooms in colonial style home by the forest,Álvaro Obregón,19.32974,-99.28587,"$1,700.00 "
9/23/2022,"Stylish, Central, Clean, Spacious",Cuauhtémoc,19.42843,-99.17079,"$3,252.00 "
9/23/2022,✮COZZY REFORMA✮BEST Location✮5 Stars LongStayTerm,Cuauhtémoc,19.42681,-99.16224,$937.00 
9/23/2022,habitación con baño en departamento,Cuauhtémoc,19.4269,-99.17456,"$9,999.00 "
9/22/2022,habitaciones para Estudiantes 1 Dr en Acoxpa,Tlalpan,19.29878,-99.14604,$250.00 
9/23/2022,Cozy private studio close Condesa,Miguel Hidalgo,19.40317,-99.17978,$339.00 
9/23/2022,"1 cama  matrimoniales, 1.5 baños",Cuauhtémoc,19.42245,-99.16123,$719.00 
9/23/2022,Suite Alameda Park,Cuauhtémoc,19.43515,-99.14662,"$1,298.00 "
9/23/2022,Queen bed + Mexican Art in Roma,Cuauhtémoc,19.4221,-99.161,$659.00 
9/23/2022,Location Location in Polanco,Miguel Hidalgo,19.43347,-99.18501,"$3,000.00 "
9/23/2022,DEPARTAMENTO LOFT EN LA CONDESA!!,Cuauhtémoc,19.41602,-99.17821,"$3,429.00 "
9/23/2022,Private suite centrally located,Benito Juárez,19.36274,-99.15571,$998.00 
9/23/2022,Hermoso Loft en renta,Álvaro Obregón,19.32714,-99.20318,$950.00 
9/22/2022,Welcome to The Palm House!! 3,Benito Juárez,19.36661,-99.18552,$700.00 
9/22/2022,"204 Historic Center... 2Bdrm, 2Bath A/C Apt.",Cuauhtémoc,19.428986,-99.134689,"$1,252.00 "
9/23/2022,FURNISHED MODERN LOFT APARTMENT,Cuauhtémoc,19.4115,-99.17612,"$1,697.00 "
9/23/2022,Cute apt. in the heart of Col.Roma,Cuauhtémoc,19.41536,-99.15808,"$1,312.00 "
9/23/2022,Beautiful Suite in Great Location! (J2),Miguel Hidalgo,19.43725,-99.18178,$810.00 
9/23/2022,"NEW at La Roma, axis of culture&fun",Cuauhtémoc,19.42523,-99.1593,$979.00 
9/23/2022,5 Loft Suites in La Roma Arranged Like Mini Boutique Hotel,Cuauhtémoc,19.41888,-99.16397,"$7,818.00 "
9/23/2022,Nice & cozy apartment,Coyoacán,19.345,-99.12348,"$1,098.00 "
9/23/2022,Trendy loft 2 blocks from El Angel!,Cuauhtémoc,19.4253,-99.16652,"$1,228.00 "
9/23/2022,Tesorito en la Roma Norte,Cuauhtémoc,19.41852,-99.16238,"$1,997.00 "
9/22/2022,Rustic room for rent,Tlalpan,19.29837,-99.1886,$600.00 
9/23/2022,Rooftop apartment in Condesa,Cuauhtémoc,19.40818,-99.17963,$608.00 
9/22/2022,Vivo cerca zona de hospitales - pick u  up airport,Tlalpan,19.26982,-99.16967,$599.00 
9/23/2022,Beautiful apartment in La Condesa great location,Cuauhtémoc,19.408909,-99.176506,"$2,800.00 "
9/23/2022,Departamento nuevo y céntrico,Cuauhtémoc,19.43727,-99.15854,"$1,200.00 "
9/23/2022,Beautiful Spacious PH w/balcony in Condesa,Cuauhtémoc,19.41058,-99.17553,"$1,763.00 "
9/23/2022,Great condo in the heart of Roma north,Cuauhtémoc,19.42562,-99.15881,"$1,298.00 "
9/23/2022,"Anzures/Polanco,great location W private garden!",Miguel Hidalgo,19.43469,-99.1814,"$1,200.00 "
9/23/2022,Polanco! with Beautiful Terrace,Miguel Hidalgo,19.42926,-99.19138,"$2,576.00 "
9/23/2022,Sunny duplex in trendiest Col. Roma,Cuauhtémoc,19.42225,-99.16383,"$1,777.00 "
9/23/2022,A warm sunny apt. at La Roma,Cuauhtémoc,19.41955,-99.15629,$839.00 
9/22/2022,"Descansa en la Preciosa Suite del Arquitecto en San Angel, Ciudad de México",Álvaro Obregón,19.34943,-99.19404,"$2,900.00 "
9/23/2022,Habitación en la Col. San Rafael,Cuauhtémoc,19.43919,-99.15698,"$8,200.00 "
9/23/2022,Buena habitación cerca de todo.,Miguel Hidalgo,19.43424,-99.17952,$480.00 
9/23/2022,Cozy Private Room at Polanco,Miguel Hidalgo,19.43267,-99.18925,$659.00 
9/23/2022,❤ MX - SUITES FOR WORKSHOPS & GROUP STAYS,Cuauhtémoc,19.42374,-99.16946,"$1,897.00 "
9/22/2022,Habitación estudio + baño privado Nice single room,Coyoacán,19.34263,-99.16528,$480.00 
9/22/2022,"El departamento de las lavandas. WiFi, H2O calient",Benito Juárez,19.39769,-99.15057,$250.00 
9/23/2022,Casa en bosques de la herradura !!!,Cuauhtémoc,19.434,-99.14326,"$1,700.00 "
9/23/2022,CHARMING & COZY TWO FLOOR HOUSE IN LA ROMA,Cuauhtémoc,19.41427,-99.16103,"$2,396.00 "
9/23/2022,Beautiful Room in an Art Decó House,Miguel Hidalgo,19.40291,-99.18529,"$1,598.00 "
9/22/2022,3C - Suite La Bombilla San Angel - 1BR/1BA Double,Álvaro Obregón,19.3537,-99.19132,$850.00 
9/22/2022,Habitación muy ubicada del valle,Benito Juárez,19.37419,-99.1726,$450.00 
9/23/2022,New Apt. in Traditional Neibourhood,Miguel Hidalgo,19.40455,-99.1764,"$1,098.00 "
9/22/2022,Tlalpan Hospitals and Health Institutes area CDMX,Tlalpan,19.29613,-99.17194,$480.00 
9/23/2022,Cozy appartment & excelent location,Cuauhtémoc,19.42969,-99.16216,"$1,198.00 "
9/23/2022,Personal Suite,Cuauhtémoc,19.42475,-99.16455,"$1,378.00 "
9/23/2022,"Near WTC, cozy & beautiful design!",Benito Juárez,19.39503,-99.17804,$900.00 
9/22/2022,Acogedora habitación céntrica CDMX,Venustiano Carranza,19.41826,-99.12407,$350.00 
9/23/2022,Habitación privada cerca de WTC,Benito Juárez,19.39163,-99.17583,$693.00 
9/23/2022,Play & Work Like a Local in Stunning Apt @ Polanco,Miguel Hidalgo,19.43764,-99.18951,"$1,693.00 "
9/22/2022,Peace and comfort in the City,Cuajimalpa de Morelos,19.38449,-99.25532,"$2,858.00 "
9/23/2022,Trendy Design at Carso ∫ Telecommuting ∫ Gym ∫ Pool ∫ Security ∫ Rooftop ∫ BBQ,Miguel Hidalgo,19.44402,-99.20439,"$2,173.00 "
9/23/2022,Elegant and Artistic Loft on Historic Madero Street,Cuauhtémoc,19.43467,-99.1375,"$1,358.00 "
9/23/2022,Acogedor Departamento Roma Norte,Cuauhtémoc,19.41813,-99.15816,"$1,238.00 "
9/23/2022,"Wonderful, centric private room",Cuauhtémoc,19.42743,-99.17382,$633.00 
9/22/2022,Apartamento 2 recamaras Polanco,Miguel Hidalgo,19.43002,-99.20259,"$1,620.00 "
9/23/2022,Polanco Newton D.F.,Miguel Hidalgo,19.43153,-99.19222,"$2,596.00 "
9/22/2022,Great room close to UNAM,Álvaro Obregón,19.33727,-99.19522,$440.00 
9/22/2022,"Casita a 10 min de Santa Fe. 4 habitaciones, 7 per",Álvaro Obregón,19.33615,-99.22969,"$2,250.00 "
9/23/2022,Departamento con vista panorámica,Cuauhtémoc,19.42917,-99.16349,"$2,995.00 "
9/23/2022,My Home is YOUR home,Cuauhtémoc,19.41348,-99.17645,"$1,200.00 "
9/23/2022,1 Pretty Room in Condesa!,Cuauhtémoc,19.40815,-99.17434,$950.00 
9/23/2022,MASTER SUITE AT MEXICO CITY,Miguel Hidalgo,19.41549,-99.18029,$578.00 
9/23/2022,Condesa 2 Bedrooms 2 Baths  Free Parking & Balcony,Miguel Hidalgo,19.40399,-99.17609,"$9,985.00 "
9/22/2022,habitación en la colonia Del Valle,Benito Juárez,19.36661,-99.17329,$614.00 
9/23/2022,Beautiful Suite in Great Location! (J3),Miguel Hidalgo,19.43712,-99.18203,$810.00 
9/22/2022,Historic Coyoacan suite private bathroom & kitchen,Coyoacán,19.34666,-99.16515,$726.00 
9/22/2022,UNAM Shared Room,Coyoacán,19.33435,-99.16144,$200.00 
9/23/2022,Modern haven steps from Reforma & the Angel,Cuauhtémoc,19.42952149,-99.16667919,$900.00 
9/22/2022,Super Appartm. View to Popocatepetl,Benito Juárez,19.36407,-99.14683,$495.00 
9/22/2022,SUITES INR EL FORESTAL,Tlalpan,19.29252,-99.14439,$280.00 
9/23/2022,Best modern complex in DF,Cuauhtémoc,19.43356,-99.14651,"$1,415.00 "
9/23/2022,"Sunny 3 bd in Condesa, Just upgraded",Cuauhtémoc,19.40861,-99.17228,"$1,655.00 "
9/23/2022,"CONDESA Comfortable, Stylish Flat & Nice Location.",Cuauhtémoc,19.40663,-99.17879,"$1,230.00 "
9/23/2022,Departamento 1 Recamara Polanco,Miguel Hidalgo,19.43629,-99.20622,"$1,150.00 "
9/22/2022,"super cool, bonito, moderno y muy equipado",Cuauhtémoc,19.45533,-99.15465,"$6,000.00 "
9/23/2022,Boutique Apartment 402 Historic Center,Cuauhtémoc,19.43456,-99.14466,$725.00 
9/23/2022,"Great looking bedroom wifi,cableTV",Cuauhtémoc,19.40462,-99.1572,$699.00 
9/22/2022,Nice priv. room w/bathroom ES/JP/EN,Benito Juárez,19.36026,-99.15691,"$1,000.00 "
9/23/2022,"illuminated studio in Roma-Norte, NO kitchen",Cuauhtémoc,19.41872,-99.16102,$491.00 
9/23/2022,Bright Roma Condo & Private Terrace,Cuauhtémoc,19.41817872,-99.15478249,"$1,164.00 "
9/23/2022,Condesa Duplex Apartment,Cuauhtémoc,19.41416,-99.17151,"$2,097.00 "
9/23/2022,PRACTICAL EXECUTIVE STUDIO AT 3 BLOCKS POLANCO,Miguel Hidalgo,19.42863,-99.17641,$827.00 
9/22/2022,Casa renta con 5 recamaras y jardin,Álvaro Obregón,19.31945,-99.29204,"$2,000.00 "
9/22/2022,French Mansion in Coyoacan (Suite Neruda),Coyoacán,19.34538,-99.16164,"$2,672.00 "
9/22/2022,5A - Suite Altavista San Angel - 1BR/1BA Double,Álvaro Obregón,19.35393,-99.19287,$850.00 
9/22/2022,Alojamiento en ciudad de Mexico,Iztacalco,19.40483,-99.07837,$220.00 
9/22/2022,Peach Forest Department,Miguel Hidalgo,19.40403,-99.24282,"$1,057.00 "
9/22/2022,"CÓMODO, SEGURO Y ACCESIBLE",Álvaro Obregón,19.3885,-99.19642,$299.00 
9/22/2022,Habitación privada cerca Plaza Carso,Miguel Hidalgo,19.44545,-99.20797,$585.00 
9/22/2022,Departamento cerca de interlomas,Miguel Hidalgo,19.39948,-99.2529,"$2,000.00 "
9/22/2022,"Excellent room,clean comfortable!!",Benito Juárez,19.38751,-99.15304,$350.00 
9/22/2022,departamento dos recamaras,Miguel Hidalgo,19.3986,-99.25097,"$1,386.00 "
9/23/2022,"Room 6 - Historical home, best location Roma Norte",Cuauhtémoc,19.42202,-99.15752,$532.00 
9/23/2022,LUXURY APARTMENT WITH SWIMMING POOL,Cuauhtémoc,19.42697,-99.16376,"$1,677.00 "
9/22/2022,Habitación (estacionamiento incluido),Benito Juárez,19.38188,-99.13997,$440.00 
9/22/2022,Casa de los cactus,Coyoacán,19.34157,-99.16034,$210.00 
9/22/2022,"Nice in Reforma, Good value",Cuauhtémoc,19.4471,-99.13514,"$1,100.00 "
9/22/2022,Habitación Copilco,Coyoacán,19.33989,-99.18221,"$1,500.00 "
9/23/2022,Polanco Super Lujo,Miguel Hidalgo,19.43683,-99.20421,"$4,992.00 "
9/22/2022,Cuarto grande e iluminado-Coyoacan,Coyoacán,19.34655,-99.14548,$315.00 
9/22/2022,1 Bedroom Apartment bosques,Miguel Hidalgo,19.40033,-99.25303,"$1,023.00 "
9/22/2022,"Private, independant room with bath",Miguel Hidalgo,19.4318,-99.2045,$600.00 
9/23/2022,Great Private Room Polanco Carso,Miguel Hidalgo,19.44357,-99.20665,$449.00 
9/22/2022,Excelente recamara grande pantalla,Benito Juárez,19.36547,-99.15736,$400.00 
9/22/2022,Cosy private room / Top location!,Álvaro Obregón,19.34905,-99.18262,$497.00 
9/23/2022,Great Location! Beatiful and Spotless Clean!,Cuauhtémoc,19.42584,-99.16573,$961.00 
9/23/2022,"Polanco, Masaryk ... Best location",Miguel Hidalgo,19.43084,-99.18227,$736.00 
9/23/2022,1. HABITACIÓN PRIVADA CON BAÑO Polanco SANITIZADO,Miguel Hidalgo,19.43236,-99.19258,"$1,500.00 "
9/23/2022,Depto tipo loft. La Condesa,Cuauhtémoc,19.40973,-99.17472,"$1,150.00 "
9/23/2022,Departamento acogedor y cálido,Miguel Hidalgo,19.40006,-99.1719,$390.00 
9/23/2022,3. HABITACIÓN PRIVADA CON BAÑO Polanc SANITIZADO,Miguel Hidalgo,19.43171,-99.19083,$500.00 
9/23/2022,"Private Room, 3 blocks from Reforma",Cuauhtémoc,19.4317,-99.16738,$555.00 
9/22/2022,Full furbished apartment in colonia Del Valle sur,Benito Juárez,19.371632,-99.171158,$460.00 
9/22/2022,Sur Ciudad de México FUCAM- Coapa,Coyoacán,19.30893,-99.12551,$750.00 
9/23/2022,"Prívate room, 3 blocks from Reforma",Cuauhtémoc,19.4317,-99.16547,$415.00 
9/22/2022,"Tlalpan Center-Hospital area, UIC University",Tlalpan,19.27942,-99.16548,$240.00 
9/22/2022,Best place Health Institutes and Hospitals area,Tlalpan,19.29434,-99.17097,$500.00 
9/23/2022,"Big, iluminated, cozy room. Polanco",Miguel Hidalgo,19.4377,-99.18334,$550.00 
9/22/2022,Live South of Mexico City!,Tlalpan,19.29527,-99.17314,$400.00 
9/22/2022,Casa de los Paramis 1,Benito Juárez,19.37486,-99.13791,$270.00 
9/22/2022,Excellent Location #CDMX,Benito Juárez,19.396,-99.15377,$500.00 
9/22/2022,SUITES AMUEBLADAS RENTA SUR MEXICO,Tlalpan,19.2913,-99.21348,$300.00 
9/23/2022,BEAUTIFUL/UNIQUE Apt❤️ Private ROOF GARDEN & more!,Cuauhtémoc,19.42841,-99.15743,$765.00 
9/23/2022,"La Condesa, departamento completo para habitar",Cuauhtémoc,19.41169,-99.167,"$1,248.00 "
9/23/2022,3BR Comfy and Nice,Cuauhtémoc,19.42677,-99.16164,$903.00 
9/23/2022,2 Bedroom Apartment with RoofGarden,Cuauhtémoc,19.43073,-99.15615,"$1,498.00 "
9/22/2022,MARÍA MARÍA,Gustavo A. Madero,19.50534,-99.09315,$450.00 
9/23/2022,Very Nice Loft with Great Amenities at Roma,Cuauhtémoc,19.41944,-99.17107,"$1,001.00 "
9/22/2022,Precioso Depto en Recinto Santa Fe,Cuajimalpa de Morelos,19.35068,-99.29522,"$1,457.00 "
9/23/2022,"LOFT PH. ZONA POLANCO/LOMAS ""PH01-D""",Miguel Hidalgo,19.43416,-99.2122,$986.00 
9/23/2022,Expansive High-End Apartment in Exclusive Polanco,Miguel Hidalgo,19.43512,-99.18912,"$3,566.00 "
9/23/2022,"HIP, SAFE, and CENTRAL w/GARDEN!",Cuauhtémoc,19.41926,-99.17445,"$5,991.00 "
9/23/2022,Duplex in Roma Norte,Cuauhtémoc,19.42007,-99.16008,"$1,398.00 "
9/22/2022,Comfortable room for travelers,Benito Juárez,19.36565,-99.15395,$300.00 
9/23/2022,Sunny apartment on Parque México,Cuauhtémoc,19.41113,-99.16911,"$1,398.00 "
9/23/2022,Plaza Carso Apartment,Miguel Hidalgo,19.44196,-99.20137,"$2,396.00 "
9/22/2022,La habitación al jardín.,Tlalpan,19.28866,-99.14419,$300.00 
9/22/2022,Private equipped Suite 80 megas WiFi dbl bed,Benito Juárez,19.37631,-99.15927,$749.00 
9/23/2022,Hermoso Dpto. En el corazón de la Condesa,Cuauhtémoc,19.41406,-99.17406,"$1,528.00 "
9/22/2022,Departamento en Tepepan,Xochimilco,19.26691,-99.12841,$303.00 
9/23/2022,Rento Bello y comodo Departamento,Benito Juárez,19.39855,-99.14846,$599.00 
9/23/2022,Large Groups - 3BR  - Touristic&Business Area,Cuauhtémoc,19.42677,-99.16164,$949.00 
9/23/2022,LOVELY & COZY ⭐️ apartment at the heart of POLANCO,Miguel Hidalgo,19.44197,-99.2002,"$1,298.00 "
9/23/2022,* ROMA cute-mex studio *,Cuauhtémoc,19.42558,-99.15584,$768.00 
9/23/2022,Small room near Bellas Artes,Cuauhtémoc,19.43684,-99.13901,$300.00 
9/22/2022,Habitación en Miguel Hidalgo cerca Polanco,Miguel Hidalgo,19.45891,-99.18964,$313.00 
9/22/2022,"CENTRICO, UBICADISIMO",Cuauhtémoc,19.44979,-99.14047,$979.00 
9/23/2022,"Hermoso departamento, zona céntrica",Cuauhtémoc,19.43764,-99.15896,"$1,200.00 "
9/23/2022,"Suite, nueva y céntrica",Cuauhtémoc,19.43727,-99.15854,"$1,200.00 "
9/22/2022,Casa Amueblada con 4 Cuartos Vigilancia por TEC,Tlalpan,19.29736,-99.12358,"$1,400.00 "
9/23/2022,Beautiful and cozy apartment in Mexico City,Cuauhtémoc,19.42538,-99.15451,$519.00 
9/23/2022,Small and cute studio,Cuauhtémoc,19.41438,-99.17598,$599.00 
9/23/2022,Lovely apartment in Roma,Cuauhtémoc,19.41058,-99.15896,$998.00 
9/23/2022,Live CDMX to the max at Roma Norte,Cuauhtémoc,19.42398,-99.16097,"$1,512.00 "
9/23/2022,Recámara y baño privado en departamento compartido,Cuauhtémoc,19.43127,-99.16303,$650.00 
9/23/2022,2 Bedroom Apartment A.Musset,Miguel Hidalgo,19.43869,-99.19577,"$1,695.00 "
9/22/2022,Bedroom in beautiful studio in Coyoacán MA Quevedo,Coyoacán,19.34367,-99.15278,$940.00 
9/23/2022,Amazing Loft  with Great Location!,Miguel Hidalgo,19.40184,-99.18338,"$1,150.00 "
9/23/2022,PRIME 3BR |  Next to Hyatt Hotel,Miguel Hidalgo,19.42699,-99.19325,"$4,992.00 "
9/23/2022,beautifull rooms in a shared flat,Miguel Hidalgo,19.41315,-99.18338,$700.00 
9/22/2022,Beatiful and confortable room,Benito Juárez,19.36507,-99.16036,$250.00 
9/23/2022,⭐Air Conditioning-Fast Internet 150MBs- Great view,Cuauhtémoc,19.42051,-99.16692,"$1,694.00 "
9/23/2022,Rooftop Studio by Chapultepec Park,Miguel Hidalgo,19.41274,-99.18636,$611.00 
9/23/2022,Live  in the heart of  La Roma!,Cuauhtémoc,19.421,-99.16094,"$1,726.00 "
9/23/2022,Hermoso Departamento /Lovely Apartment!,Cuauhtémoc,19.43549,-99.14688,"$1,300.00 "
9/23/2022,Espectacular en la Roma Norte  +  Karaoke,Cuauhtémoc,19.41453,-99.15914,"$1,857.00 "
9/23/2022,Private room in Luxury flat in Polanco / Carso.,Miguel Hidalgo,19.44178,-99.20184,"$1,043.00 "
9/23/2022,"Excelente Departamento, Be Grand, Alto Polanco, 9",Miguel Hidalgo,19.43927,-99.1827,$998.00 
9/23/2022,Habitación en mi departamento para 1 ó 2 personas.,Cuauhtémoc,19.43251,-99.16865,$480.00 
9/22/2022,Casa de campo con vista a la Cd. Mx,Tlalpan,19.19664,-99.23653,"$1,800.00 "
9/23/2022,"Beautiful Loft Downtown, Amazing view",Cuauhtémoc,19.43447,-99.15264,"$1,500.00 "
9/23/2022,Super Located Designer Lofty-Apt !!,Cuauhtémoc,19.40917,-99.17815,"$1,797.00 "
9/23/2022,"LOFT PH. ZONA POLANCO/LOMAS ""PH02-A""",Miguel Hidalgo,19.43412,-99.21201,"$1,150.00 "
9/23/2022,"Near Coyoacan,CNA,Foro Sol,Downtown,and more.",Coyoacán,19.35492,-99.13287,$944.00 
9/22/2022,Bonita casa con 2 habitaciones.,Iztapalapa,19.32406,-99.09364,$400.00 
9/23/2022,Habitación en el centro histórico,Cuauhtémoc,19.43813,-99.13648,$325.00 
9/23/2022,Department in Rome North in the heart of CDMX,Cuauhtémoc,19.42248,-99.164,$407.00 
9/23/2022,Casa Molcajete,Coyoacán,19.35013,-99.16283,"$1,050.00 "
9/22/2022,Beatiful room at the heart of Roma-Condesa,Cuauhtémoc,19.41923,-99.17614,$496.00 
9/22/2022,Private room in Churubusco,Iztapalapa,19.36125,-99.13135,$340.00 
9/22/2022,"Col. Del Valle, Habitación Privada",Benito Juárez,19.37387,-99.17416,"$4,500.00 "
9/23/2022,Cosy Bedroom near Reforma,Cuauhtémoc,19.43382,-99.16694,$559.00 
9/23/2022,Hermosa Habitación Estudio en Condesa,Cuauhtémoc,19.40503,-99.17414,"$4,293.00 "
9/22/2022,Pequeño cuarto en azotea con entrada independiente,La Magdalena Contreras,19.30762,-99.22853,$550.00 
9/23/2022,Super Cozy Suite in Roma Norte >> WiFi (140 mbps),Cuauhtémoc,19.416664,-99.161072,"$1,198.00 "
9/23/2022,Great apt in heart of polanco,Miguel Hidalgo,19.43786,-99.19102,"$1,834.00 "
9/23/2022,"Amazing Loft at Alameda Central, Mexico City!",Cuauhtémoc,19.43372,-99.14517,"$1,318.00 "
9/22/2022,"Hermosa recámara, amplia, muy iluminada.",Benito Juárez,19.3626706,-99.1632773,$930.00 
9/23/2022,"Great location, excellent room!",Cuauhtémoc,19.40532,-99.16922,$750.00 
9/22/2022,Departamento Completo  COAPA SUR -CAFETALES- CDMX,Tlalpan,19.29895,-99.1128,$650.00 
9/23/2022,CONDESA - Home away from home!,Cuauhtémoc,19.41264,-99.17253,$867.00 
9/22/2022,Habitación privada zona sur Acoxpa,Tlalpan,19.29948,-99.13491,$550.00 
9/22/2022,Nice Flat with Excellent Location !,Cuauhtémoc,19.44647,-99.15498,$733.00 
9/22/2022,♡50% Off Concerts!! Up to 100 mbp Downtown Airport,Venustiano Carranza,19.41631,-99.11947,"$1,529.00 "
9/22/2022,Linda habitación privada,Benito Juárez,19.38484,-99.17942,$800.00 
9/23/2022,Boutique Apartment PBK Downtown,Cuauhtémoc,19.43452,-99.14587,"$1,130.00 "
9/22/2022,La Donia Frida,Coyoacán,19.3423,-99.15651,$920.00 
9/22/2022,5 min to CDMX airport,Venustiano Carranza,19.43949,-99.08769,$400.00 
9/23/2022,Beautiful flat in Art Nouveau building,Cuauhtémoc,19.41844,-99.15729,"$1,081.00 "
9/22/2022,Come and fall in love with Mexico,Coyoacán,19.34477,-99.16199,$774.00 
9/22/2022,Habitación privada con su baño,Cuajimalpa de Morelos,19.36203,-99.28253,$700.00 
9/23/2022,Cute 1 BR Apt . A few steps from Mercado Medellin,Cuauhtémoc,19.41037,-99.1594,"$3,800.00 "
9/22/2022,Cosy bedroom in beautiful house in Coyoacan,Coyoacán,19.34581,-99.16377,$340.00 
9/23/2022,Espectacular loft PH zona Polanco B,Miguel Hidalgo,19.43359,-99.21111,$999.00 
9/22/2022,Spread Out and Lounge in This Spacious Polanco Apartment,Miguel Hidalgo,19.42946,-99.2051,"$5,001.00 "
9/23/2022,Espacio nuevo en la Roma Sur,Cuauhtémoc,19.40421,-99.16724,$213.00 
9/22/2022,Entire furnished flat loft style,Cuajimalpa de Morelos,19.35975,-99.26765,$799.00 
9/22/2022,Loft centro Tlalpan,Tlalpan,19.2874,-99.17027,"$1,000.00 "
9/22/2022,Depto cercano a Basílica de Gpe.,Gustavo A. Madero,19.49259,-99.10966,$320.00 
9/23/2022,Habitación Privada,Benito Juárez,19.39383,-99.16605,$559.00 
9/23/2022,NEW  APARTMENT IN POLANCO,Miguel Hidalgo,19.44451,-99.20383,"$1,350.00 "
9/23/2022,Departamento tipo casita,Miguel Hidalgo,19.40353,-99.18225,"$1,500.00 "
9/23/2022,Modern Mexico City apartment @ historic district,Cuauhtémoc,19.43586,-99.15091,"$1,120.00 "
9/23/2022,"Room 8 - Historical home, best location Roma Norte",Cuauhtémoc,19.42431,-99.1595,$501.00 
9/23/2022,Room 10 - Historical home best location Roma Norte,Cuauhtémoc,19.42356,-99.15718,$467.00 
9/22/2022,Depa en Tlatelolco. CDMX,Cuauhtémoc,19.45414,-99.14854,$260.00 
9/23/2022,executive apartment,Cuauhtémoc,19.41305,-99.17721,"$1,347.00 "
9/22/2022,Beautifull flat near WTC!,Benito Juárez,19.38885,-99.17962,"$1,189.00 "
9/22/2022,"Grand Room, Share Services; Near UNAM and Coyoacan",Coyoacán,19.34219,-99.17149,$230.00 
9/23/2022,Pretty apt between Condesa and Roma & WTC,Miguel Hidalgo,19.40266,-99.17147,$800.00 
9/22/2022,Roof Department South Mexico City Near UNAM,Coyoacán,19.34116,-99.17069,$220.00 
9/23/2022,IN THE HEART OF CONDESA,Miguel Hidalgo,19.40127,-99.18086,$745.00 
9/22/2022,Extraordinario Departamento Parking,Álvaro Obregón,19.33642,-99.19583,$940.00 
9/22/2022,Amazing Deal LoftBed in a Eco-Coyoacan Casita,Coyoacán,19.35174,-99.14996,$360.00 
9/22/2022,Great & Well located Studio Excellent for Bussines,Miguel Hidalgo,19.42378,-99.17767,"$1,470.00 "
9/22/2022,Beautiful  private room,Benito Juárez,19.36305755,-99.15938343,$350.00 
9/22/2022,Habitaciones comodas y amplias,Álvaro Obregón,19.33177,-99.22771,$450.00 
9/23/2022,Departamento con recámaras independientes.,Cuauhtémoc,19.41552,-99.15094,"$1,150.00 "
9/22/2022,★ CDMX BEST LOCATION★  | NEAR HISTORIC DTWN |,Benito Juárez,19.3874,-99.14503,$686.00 
9/22/2022,Luxury Apartment in Letran Valle,Benito Juárez,19.37404,-99.15892,"$1,200.00 "
9/23/2022,"LOFT PH.  ZONA POLANCO/LOMAS ""PH01-B""",Miguel Hidalgo,19.43405,-99.21217,"$1,150.00 "
9/22/2022,Luxury Apartment with amenities,Benito Juárez,19.36417,-99.1621,"$1,100.00 "
9/23/2022,"Roma Sur, excelente locación, loft",Cuauhtémoc,19.40315,-99.16555,$573.00 
9/22/2022,Departamento-estudio/Apartment-study in Coyoacan,Coyoacán,19.3543,-99.15686,"$1,000.00 "
9/23/2022,Beautiful and spacious 2-floor apartment.,Cuauhtémoc,19.40956,-99.18165,$900.00 
9/23/2022,Private Room –El Buen Tono (Juárez),Cuauhtémoc,19.42761,-99.1542,$699.00 
9/23/2022,casa estudio jose salazar,Cuauhtémoc,19.42954,-99.16308,$659.00 
9/23/2022,Confortable Room in Del ValleCentro,Benito Juárez,19.3964,-99.16588,$220.00 
9/23/2022,Cozy apartment in Condesa.,Cuauhtémoc,19.41478,-99.17483,"$1,129.00 "
9/23/2022,A road from hipster Roma Norte,Cuauhtémoc,19.41958,-99.1502,$998.00 
9/22/2022,Cozy private room in the center of Coyoacan.,Coyoacán,19.35192,-99.15741,"$1,000.00 "
9/22/2022,BACALAR BED&BREAKFAST AND DIVEHOUSE,Gustavo A. Madero,19.55588,-99.12778,$760.00 
9/22/2022,"Coyoacan, close metro blue line",Coyoacán,19.34564,-99.14716,$312.00 
9/22/2022,Cozy room in Sta Catarina Coyoacan house,Coyoacán,19.34512,-99.17203,$320.00 
9/23/2022,"The Glamorous Peacock, Cozy flat @Casa Quetzal",Cuauhtémoc,19.41751,-99.16055,"$1,920.00 "
9/22/2022,Habitación poncho,Azcapotzalco,19.49142,-99.1981,$250.00 
9/23/2022,Nice private studio close  Condesa,Miguel Hidalgo,19.40303,-99.17871,$359.00 
9/23/2022,New Apartment in the Heart of Mexico City,Cuauhtémoc,19.42686,-99.15904,"$9,985.00 "
9/23/2022,Habitación privada cerca de Polanco,Miguel Hidalgo,19.4439,-99.206,$480.00 
9/23/2022,luxurious sunny  1-bedroom apart,Cuauhtémoc,19.42032,-99.16059,$983.00 
9/22/2022,depto Amueblado Equipado Narvarte,Benito Juárez,19.39196,-99.15615,"$19,003.00 "
9/23/2022,Beautiful apartment in Condesa,Cuauhtémoc,19.40805,-99.17136,"$1,358.00 "
9/22/2022,HERMOSA RECAMARA CON 2 CAMAS(al sur por six flags),Tlalpan,19.26685,-99.20109,$306.00 
9/23/2022,Loft- Suites Condesa Mexico,Cuauhtémoc,19.40922,-99.1732,$800.00 
9/22/2022,The palm house,Benito Juárez,19.36813,-99.18757,$500.00 
9/23/2022,Polanco excellent location and home atmosphere,Miguel Hidalgo,19.43283,-99.18866,"$1,198.00 "
9/22/2022,19th Century House Garden Studio,Benito Juárez,19.37758,-99.18654,"$1,126.00 "
9/22/2022,entire apartment near insurgentes in hundido park,Benito Juárez,19.37753,-99.18192,$600.00 
9/22/2022,Studio en San Angel !,Álvaro Obregón,19.34078,-99.19508,$470.00 
9/23/2022,Location ✔ Gym & Pool ❤ In front of AlamedaCentral,Cuauhtémoc,19.43481,-99.14574,$932.00 
9/22/2022,Habitación privada en Tlalpan,Tlalpan,19.29527,-99.16743,$600.00 
9/22/2022,Hermoso cuarto en mejor zona DF,Iztapalapa,19.3429,-99.00798,$720.00 
9/22/2022,Bonito Apartamento de 2 dormitorios con parking,Cuauhtémoc,19.4116,-99.14432,"$1,250.00 "
9/23/2022,Best value location & SAFETY ★2p★@Trendy Roma Sur,Cuauhtémoc,19.4063,-99.16222,$382.00 
9/23/2022,You can get anywhere from here!,Cuauhtémoc,19.41673,-99.16919,$739.00 
9/23/2022,Private art studio in Mexico City,Miguel Hidalgo,19.3995,-99.17659,$200.00 
9/23/2022,Beautiful Apartment in Polanco,Miguel Hidalgo,19.43899,-99.1947,"$1,318.00 "
9/22/2022,A 3 MINUTOS DE LA TERMINAL 1  DEL AEROPUERTO CDMX,Venustiano Carranza,19.43659,-99.09103,$407.00 
9/23/2022,Studio- Apartment in Condesa,Cuauhtémoc,19.41325,-99.17809,$799.00 
9/23/2022,LO MEJOR DE POLANQUITO B&B HERMOSA/AMPLIA/ILUMINAD,Miguel Hidalgo,19.43049,-99.19651,"$3,293.00 "
9/23/2022,Top Location - City Centre,Cuauhtémoc,19.432249,-99.138039,"$1,258.00 "
9/23/2022,2.-Fantastic studio in Roma Norte,Cuauhtémoc,19.41655,-99.16199,"$1,009.00 "
9/23/2022,"Room 9 - Historical home, best location Roma Norte",Cuauhtémoc,19.42225,-99.15932,$406.00 
9/23/2022,"1.- Roma Norte, great studio",Cuauhtémoc,19.41918,-99.16193,"$1,084.00 "
9/23/2022,"3.- Roma Norte, great 1 bedroom Studio",Cuauhtémoc,19.41759,-99.16225,"$1,000.00 "
9/23/2022,"Cómodo Depto  para 3, con cocina y baño amplios",Cuauhtémoc,19.41552,-99.15094,"$1,400.00 "
9/23/2022,"Casa Donceles Apt 8❤️Ideal for Families, sanitized",Cuauhtémoc,19.43667,-99.13862,"$1,578.00 "
9/22/2022,Centric Room at Coyoacán with independent access,Coyoacán,19.34038,-99.14751,$200.00 
9/23/2022,"Casa Donceles Apt 5❤️Ideal for Families, sanitized",Cuauhtémoc,19.43667,-99.13862,"$1,578.00 "
9/23/2022,Beautiful flat 2 bedroom downtown 404,Cuauhtémoc,19.42824,-99.1383,$893.00 
9/22/2022,"Minidepartamento , totalmente independiente.",Benito Juárez,19.37272,-99.17059,$520.00 
9/23/2022,Excellent Place for visitors of Mex,Cuauhtémoc,19.43285,-99.17015,$599.00 
9/23/2022,Racine Suites,Miguel Hidalgo,19.43617,-99.21147,"$1,205.00 "
9/22/2022,"Departamento San Angel, Ciudad Universitaria, UNAM",Álvaro Obregón,19.34152,-99.18875,"$1,105.00 "
9/23/2022,Amazing Location (Private Room),Benito Juárez,19.37198,-99.17985,$432.00 
9/22/2022,Precioso Departamento  Amueblado,Benito Juárez,19.38812,-99.15495,$800.00 
9/23/2022,Embrace Outdoor Living at an Industrial-Inspired Escape,Cuauhtémoc,19.42808,-99.17222,"$1,629.00 "
9/23/2022,Beautiful Top Apt in City Towers II,Benito Juárez,19.36454,-99.16073,"$1,198.00 "
9/23/2022,•Lovely 1BR apt. 2 blocks from Plaza L.Cabrera,Cuauhtémoc,19.41764,-99.15774,$839.00 
9/22/2022,Coyoacan! Beautiful Apartment near everything!,Benito Juárez,19.36132,-99.15758,"$1,000.00 "
9/23/2022,Best place in Condesa,Cuauhtémoc,19.41398,-99.16714,$590.00 
9/23/2022,Cozy at best location in downtown!,Cuauhtémoc,19.43304,-99.14626,"$1,434.00 "
9/22/2022,Vive en el Corazón de Santa Fe,Cuajimalpa de Morelos,19.36217,-99.26906,"$1,450.00 "
9/23/2022,Céntrica habitación con baño privado.,Cuauhtémoc,19.43479,-99.16292,$300.00 
9/23/2022,Pretty private room w/private bthrm > WiFi 145mbps,Cuauhtémoc,19.416634,-99.16111,$499.00 
9/22/2022,HABITACIÓN B&B 5MIN AEROPUERTO CDMX,Venustiano Carranza,19.41805,-99.08452,$460.00 
9/22/2022,Suite nueva minimalista 203,Benito Juárez,19.38725,-99.1544,$900.00 
9/23/2022,Cozy apartment in CDMX,Cuauhtémoc,19.42996,-99.17128,$900.00 
9/23/2022,Cozy room with bay window and balcony,Tlalpan,19.28312,-99.16648,$450.00 
9/23/2022,"The Mystique Owl, amazing flat @ Casa Quetzal",Cuauhtémoc,19.41924,-99.16248,"$1,892.00 "
9/22/2022,OUR LADY OF GUADALUPE ROOMS,Gustavo A. Madero,19.4711,-99.11934,$600.00 
9/23/2022,El Portón rojo -house in the most elegant area.,Miguel Hidalgo,19.433805,-99.201553,"$2,198.00 "
9/23/2022,Colonial meets modern in the center of Mexico City,Cuauhtémoc,19.43182,-99.13913,$919.00 
9/22/2022,Suite totalmente equipada 103,Benito Juárez,19.38725,-99.1544,$990.00 
9/22/2022,"BEAUTIFUL condominium, great location!",Benito Juárez,19.35994,-99.15024,$900.00 
9/22/2022,Suite ejecutiva zona ideal 202.,Benito Juárez,19.38725,-99.1544,$900.00 
9/22/2022,Suite ejecutiva nueva equipada 201,Benito Juárez,19.38725,-99.1544,$900.00 
9/22/2022,Habitación chocolate / Chocolate room.,Cuauhtémoc,19.40724,-99.13663,$290.00 
9/22/2022,Suite amplia y bien ubicada 204,Benito Juárez,19.38725,-99.1544,$900.00 
9/23/2022,Boutique Apartment Puerta Alameda Down Town,Cuauhtémoc,19.43427,-99.14578,$737.00 
9/22/2022,Suite ejecutiva excelente 102,Benito Juárez,19.38725,-99.1544,$900.00 
9/23/2022,"Departamento Parque España, Condesa",Cuauhtémoc,19.41508,-99.17151,"$1,298.00 "
9/22/2022,Nice&Cozy... San Angel/top location,Álvaro Obregón,19.34562,-99.19598,$594.00 
9/23/2022,Departamento lindo muy ubicado,Cuauhtémoc,19.43001,-99.17073,$499.00 
9/23/2022,CONDESA ZAPATA - *,Cuauhtémoc,19.4114,-99.17369,$632.00 
9/23/2022,"Beautiful, Big apartment, Condesa",Cuauhtémoc,19.40825,-99.17076,"$1,797.00 "
9/23/2022,CONDESA ZAPATA-*****,Cuauhtémoc,19.41068,-99.1721,$756.00 
9/22/2022,s dfa  dsaf sdf,Iztapalapa,19.3717,-99.13468,$200.00 
9/23/2022,ZAPATA CONDESA .....,Cuauhtémoc,19.411,-99.17342,$728.00 
9/23/2022,,Miguel Hidalgo,19.40103,-99.1745,"$19,970.00 "
9/22/2022,Private double bed w/bath excellent location,Benito Juárez,19.36713,-99.16322,$500.00 
9/23/2022,Cozy and centric room in a beautiful apartment.,Miguel Hidalgo,19.40193,-99.17114,$600.00 
9/22/2022,Santa Fé - Kids friendly / Near Mall & HospitalABC,Cuajimalpa de Morelos,19.35514,-99.284,"$2,600.00 "
9/23/2022,Hermoso departamento nuevo en el Centro Histórico,Cuauhtémoc,19.4357405,-99.14810966,$657.00 
9/23/2022,Spacious apartment with balcony !,Cuauhtémoc,19.40457,-99.16916,"$1,797.00 "
9/23/2022,Casa de Chiles - the heart of vibrant Cuauhtémoc,Cuauhtémoc,19.42606,-99.17408,$979.00 
9/23/2022,Quiet house in the heart of CDMX,Miguel Hidalgo,19.40708,-99.18272,$250.00 
9/23/2022,CENTRALLY LOCATED NEW AND COZY.,Cuauhtémoc,19.42876,-99.15464,"$1,498.00 "
9/23/2022,"Room 4 - Historical home, best location Roma Norte",Cuauhtémoc,19.42237,-99.15759,$424.00 
9/23/2022,SERENE GROUND FLOOR 1BR/1BA ON CALLE AMSTERDAM,Cuauhtémoc,19.4092,-99.17111,"$2,213.00 "
9/23/2022,Condesa 2 bedroom spacious apt,Miguel Hidalgo,19.41203,-99.18193,"$1,003.00 "
9/22/2022,habitacion acogedora en buena zona,Benito Juárez,19.38236,-99.16859,$700.00 
9/23/2022,HIDDEN 1BED/1BA ON CALLE AMSTERDAM,Cuauhtémoc,19.40925,-99.17088,"$2,213.00 "
9/23/2022,Lovely apartment with patio in Roma,Cuauhtémoc,19.4128,-99.15796,"$1,000.00 "
9/22/2022,Conjunto residencial - habitacion privada.,Tlalpan,19.2957,-99.12215,$298.00 
9/23/2022,New! Beautiful Apt. w/private entrance @ Condesa,Cuauhtémoc,19.40713,-99.1756,"$1,198.00 "
9/23/2022,Linda Suite mujer Colonia Condesa,Cuauhtémoc,19.41362,-99.17443,"$1,500.00 "
9/23/2022,Beautiful PH in Parques Polanco,Miguel Hidalgo,19.441,-99.19088,"$1,400.00 "
9/22/2022,Agradable estudio,Gustavo A. Madero,19.47883,-99.11598,$780.00 
9/23/2022,LOOKING FOR A GROUP STAY DEAL? THIS IS IT!,Cuauhtémoc,19.42456,-99.17179,"$1,797.00 "
9/23/2022,Estudio Atrás del Templo Mayor,Cuauhtémoc,19.43549,-99.12868,$545.00 
9/23/2022,Perfect WFH/Staycation 3BR/2.5BA w/Interior Patios,Cuauhtémoc,19.41382,-99.17969,"$2,157.00 "
9/22/2022,Awesome apt in L'attelier Santa Fe,Álvaro Obregón,19.38146,-99.24262,"$1,830.00 "
9/23/2022,Apartment in Condesa 2 blocks from Parque México,Cuauhtémoc,19.40678,-99.17184,"$1,064.00 "
9/23/2022,HIGH-END TOWER FOR COWORKING - 90 JR. SUITES,Cuauhtémoc,19.42543,-99.17176,"$1,797.00 "
9/23/2022,cuarto cerca del aeropuerto (15min-T1) entrada ind,Gustavo A. Madero,19.45583,-99.06297,$339.00 
9/22/2022,bonito departamento con inmejorable,Benito Juárez,19.38433,-99.16831,$700.00 
9/23/2022,"2BR, 2 Bathrooms,   Easy check-in, Security 24/7",Miguel Hidalgo,19.43274,-99.17236,"$1,298.00 "
9/23/2022,Art-Deco Master Suites @ Parque México /,Cuauhtémoc,19.40916,-99.16967,"$4,992.00 "
9/23/2022,Condesa Studi♡s  at Parque México/ Groups Only,Cuauhtémoc,19.41069,-99.16938,"$3,345.00 "
9/22/2022,Departamento nuevo,Álvaro Obregón,19.34143,-99.21434,$500.00 
9/23/2022,BEYOND A SIMPLE STAY: YOUR OWN SUITE AT THE PARK,Cuauhtémoc,19.41069,-99.17116,"$5,492.00 "
9/22/2022,Lovely apartment near Centro Nacional de Artes.,Iztapalapa,19.36073,-99.1374,$740.00 
9/23/2022,Lofty Haven in Mexico City,Benito Juárez,19.388189,-99.185036,$350.00 
9/23/2022,Quiet house in the heart of CDMX,Miguel Hidalgo,19.40731,-99.18281,$320.00 
9/23/2022,1 Bedroom studio Condesa B,Cuauhtémoc,19.41901,-99.1745,$629.00 
9/22/2022,YOU WILL FEEL AT HOME,La Magdalena Contreras,19.33465,-99.21417,$286.00 
9/23/2022,Studio in Mexico's City Best Neighborhood,Miguel Hidalgo,19.43001,-99.18876,$705.00 
9/23/2022,CÓMODA Y AGRADABLE RECAMARA SÚPER UBICADA,Benito Juárez,19.38066,-99.16782,$650.00 
9/23/2022,"The Violet Raven, Amazing Flat in Casa Quetzal",Cuauhtémoc,19.41915,-99.16028,"$1,892.00 "
9/22/2022,Two story Penthouse In San Angel,Álvaro Obregón,19.34928,-99.19229,"$1,950.00 "
9/22/2022,HOME INN SUITES / SAN ÁNGEL,Álvaro Obregón,19.36253,-99.18848,$600.00 
9/22/2022,Cómodo departamento en excelente ubicación,Miguel Hidalgo,19.45719,-99.21415,$590.00 
9/23/2022,Apartment in Iconic Building Overlooking Revolution Monument,Cuauhtémoc,19.43616,-99.15305,"$2,097.00 "
9/23/2022,Cdmx Top-Rated Flat with Lush Green Views in La Condesa,Cuauhtémoc,19.41189,-99.17667,"$3,570.00 "
9/22/2022,Departamento independiente en casa con jardín.,Cuajimalpa de Morelos,19.36623,-99.27494,"$1,000.00 "
9/22/2022,Hab. amueblada con baño privado.,Benito Juárez,19.36067,-99.16228,$300.00 
9/23/2022,Cozy apartment in Ejercito Nacional,Miguel Hidalgo,19.43793,-99.17944,"$1,300.00 "
9/22/2022,Departamento Coyoacán,Coyoacán,19.32285,-99.1489,$400.00 
9/23/2022,Habitación con baño privado,Benito Juárez,19.39131,-99.17773,$295.00 
9/23/2022,Cozy Private Bedroom,Miguel Hidalgo,19.41764,-99.1791,$933.00 
