,nombre_col,codigo_postal,prom_valor_unitario_suelo,latitud,longitud,alcaldia,estado
0,19 DE MAYO,1210,1404.4,19.36164923,-99.25353029,Álvaro Obregón,CDMX
1,1RA VICTORIA,1150,2061.619503,19.38668603,-99.20198527,Álvaro Obregón,CDMX
2,1RA VICTORIA SECCION BOSQUES,1150,1788.36,19.38782563,-99.1974462,Álvaro Obregón,CDMX
3,2DA  JALALPA TEPITO (AMPL),1260,1063.626266,19.37507971,-99.23373559,Álvaro Obregón,CDMX
4,2DA EL PIRUL (AMPL),1210,1320.71,19.37974524,-99.24223092,Álvaro Obregón,CDMX
5,ABRAHAM GONZALEZ,1160,2010.8,19.38652643,-99.20472555,Álvaro Obregón,CDMX
6,ACUEDUCTO,1100,1547.353163,19.39796907,-99.20539044,Álvaro Obregón,CDMX
7,ACUILOTLA,1539,1684.654748,19.35977638,-99.24364567,Álvaro Obregón,CDMX
8,AGUILAS 3ER PARQUE,1750,1992.200201,19.35259597,-99.21996603,Álvaro Obregón,CDMX
9,AGUILAS PILARES,1010,2611.596,19.35633559,-99.20358708,Álvaro Obregón,CDMX
10,ALCANTARILLA,1700,2167.62,19.33913407,-99.24593017,Álvaro Obregón,CDMX
11,ALFALFAR,1410,2582.93,19.37565654,-99.20050881,Álvaro Obregón,CDMX
12,ALFONSO XIII,1080,2591.239467,19.37663796,-99.1950567,Álvaro Obregón,CDMX
13,ALPES,1010,5101.801534,19.36014219,-99.19400993,Álvaro Obregón,CDMX
14,ALPES (AMPL),1010,2462.18,19.35650852,-99.21026543,Álvaro Obregón,CDMX
15,ARBOLEDAS POLITOCO,1150,1510.290185,19.363226,-99.24556578,Álvaro Obregón,CDMX
16,ARCOS DE CENTENARIO,1110,1393.890886,19.35976778,-99.22719871,Álvaro Obregón,CDMX
17,ARTURO GAMIZ,1506,1043.72,19.35523859,-99.25481401,Álvaro Obregón,CDMX
18,ARTURO MARTINEZ,1200,1917.105888,19.38681816,-99.21708993,Álvaro Obregón,CDMX
19,ARVIDE,1280,1990.615667,19.38144681,-99.20412203,Álvaro Obregón,CDMX
20,ATLAMAXAC,1500,1458.404486,19.35619206,-99.24738086,Álvaro Obregón,CDMX
21,ATLAMAYA,1760,4275.98,19.35020885,-99.20219321,Álvaro Obregón,CDMX
22,AVE REAL,1550,1057.83,19.36143728,-99.23769831,Álvaro Obregón,CDMX
23,AVE REAL (AMPL),1120,1057.83,19.36215639,-99.23545268,Álvaro Obregón,CDMX
24,AXOTLA,1030,4915.896643,19.35782561,-99.17491713,Álvaro Obregón,CDMX
25,BALCONES DE CEHUAYO,1340,1342.03,19.35773879,-99.24091914,Álvaro Obregón,CDMX
26,BARRIO NORTE,1140,1671.448411,19.37861665,-99.20714679,Álvaro Obregón,CDMX
27,BATALLON DE SAN PATRICIO (U HAB),1400,2768.64,19.37154034,-99.20655776,Álvaro Obregón,CDMX
28,BEJERO,1210,2832.99,19.38093061,-99.24544611,Álvaro Obregón,CDMX
29,BELEN DE LAS FLORES,1110,2042.386705,19.39625474,-99.21659601,Álvaro Obregón,CDMX
30,BELEN DE LAS FLORES (U HAB),1150,4004.53,19.38529804,-99.22311949,Álvaro Obregón,CDMX
31,BELEN DE LAS FLORES SECCION RELLENO,1110,2033.37,19.39824635,-99.21310168,Álvaro Obregón,CDMX
32,BELEN DE LAS FLORES_,1630,1220.65,19.3556217,-99.23378059,Álvaro Obregón,CDMX
33,BELLA VISTA,1000,1683.332,19.39674241,-99.19332928,Álvaro Obregón,CDMX
34,BONANZA,1220,2010.8,19.38632942,-99.21547293,Álvaro Obregón,CDMX
35,BOSQUES DE TARANGO,1500,3267.298598,19.34944692,-99.25109622,Álvaro Obregón,CDMX
36,CAADA DEL OLIVAR (U HAB),1400,1824.38,19.36979593,-99.20995092,Álvaro Obregón,CDMX
37,CALZADA JALALPA,1120,1256.223408,19.38102558,-99.22473027,Álvaro Obregón,CDMX
38,CAMPO DE TIRO LOS GAMITOS,1230,1153.95,19.38013871,-99.23781912,Álvaro Obregón,CDMX
39,CANUTILLO 3RA SECCION,1230,1670.795093,19.36177645,-99.22748007,Álvaro Obregón,CDMX
40,CANUTILLO PREDIO LA PRESA,1430,1659.2,19.36233008,-99.23093118,Álvaro Obregón,CDMX
41,CAROLA,1180,4299.89,19.38493499,-99.19663667,Álvaro Obregón,CDMX
42,CEDRO CHICO,1299,998.3257143,19.35384292,-99.25806652,Álvaro Obregón,CDMX
43,CHIMALISTAC,1000,8097.484725,19.34380945,-99.18681014,Álvaro Obregón,CDMX
44,COLINAS DE TARANGO,1610,2050.906837,19.36341493,-99.22048842,Álvaro Obregón,CDMX
45,COLINAS DEL SUR,1430,2366.382976,19.36702597,-99.22459137,Álvaro Obregón,CDMX
46,CONCIENCIA PROLETARIA,1610,855.6,19.36137476,-99.21783415,Álvaro Obregón,CDMX
47,COOPERATIVA CEHUAYO,1540,1545.932014,19.35839547,-99.24301658,Álvaro Obregón,CDMX
48,CORPUS CHRISTY,1530,1415.409833,19.36163772,-99.24844301,Álvaro Obregón,CDMX
49,CORPUS CURISTY AMPL XOCOMECATLA,1270,1234.796988,19.36370041,-99.24407484,Álvaro Obregón,CDMX
50,COVE,1100,2400.71,19.40118696,-99.19793007,Álvaro Obregón,CDMX
51,CRISTO REY,1150,1874.8,19.38879585,-99.20156454,Álvaro Obregón,CDMX
52,DE TARANGO (RCNDA),1588,2290.92,19.36260602,-99.22232144,Álvaro Obregón,CDMX
53,DESARROLLO URBANO,1270,815.6350962,19.38185156,-99.22085029,Álvaro Obregón,CDMX
54,DOS RIOS,1530,1730.2,19.35768121,-99.24556611,Álvaro Obregón,CDMX
55,EL ARBOL,1250,1236.707538,19.38024603,-99.23562446,Álvaro Obregón,CDMX
56,EL BATAN,1508,1043.72,19.35471151,-99.25912009,Álvaro Obregón,CDMX
57,EL BOSQUE,1140,1788.36,19.39269946,-99.19729486,Álvaro Obregón,CDMX
58,EL BOSQUE 2DA SECCION (AMPL),1140,1788.36,19.39151901,-99.1999765,Álvaro Obregón,CDMX
59,EL BOSQUE SECCION TORRES,1140,1788.36,19.39320576,-99.195787,Álvaro Obregón,CDMX
60,EL CAPULIN,1110,2468.285337,19.39634083,-99.2107809,Álvaro Obregón,CDMX
61,EL CAPULIN (AMPL),1110,1563.16,19.39712821,-99.20908548,Álvaro Obregón,CDMX
62,EL CUERNITO,1220,3210.05,19.3889876,-99.22271626,Álvaro Obregón,CDMX
63,EL MIRADOR,1700,1968.973333,19.34473501,-99.22588407,Álvaro Obregón,CDMX
64,EL PARAISO,1100,2010.8,19.39072409,-99.21263664,Álvaro Obregón,CDMX
65,EL PIRU (FRACC),1230,1377.81,19.38039248,-99.21782225,Álvaro Obregón,CDMX
66,EL PIRUL,1130,1481.074541,19.38032499,-99.24025377,Álvaro Obregón,CDMX
67,EL POCITO,1110,1127.922059,19.38168536,-99.20899,Álvaro Obregón,CDMX
68,EL RODEO,1270,1020.41,19.38049884,-99.20857121,Álvaro Obregón,CDMX
69,EL RUEDO,1650,1342.03,19.35136384,-99.23999834,Álvaro Obregón,CDMX
70,EMANCIPACION DEL PUEBLO,1550,1730.673758,19.36048691,-99.23854168,Álvaro Obregón,CDMX
71,ESTADO DE HIDALGO,1120,3023.996013,19.3996005,-99.20616867,Álvaro Obregón,CDMX
72,ESTADO DE HIDALGO (AMPL),1520,2659.25,19.39769761,-99.20906618,Álvaro Obregón,CDMX
73,ESTADO DE HIDALGO_,1410,1396.426754,19.36450878,-99.24168881,Álvaro Obregón,CDMX
74,FLOR DE MARIA,1040,4117.480826,19.349399,-99.20517366,Álvaro Obregón,CDMX
75,FLORIDA,1030,6471.154597,19.35752987,-99.18061311,Álvaro Obregón,CDMX
76,FRANCISCO VILLA,1170,2010.8,19.38422823,-99.20409387,Álvaro Obregón,CDMX
77,GALEANA,1400,1547.886393,19.37090649,-99.22424855,Álvaro Obregón,CDMX
78,GARCIMARRERO,1210,1471.091045,19.36540725,-99.23705802,Álvaro Obregón,CDMX
79,GARCIMARRERO NORTE,1210,1273.701481,19.36663412,-99.24238434,Álvaro Obregón,CDMX
80,GARCIMARRERO REACOMODO,1210,1470.86,19.36662783,-99.23545777,Álvaro Obregón,CDMX
81,GOLONDRINAS,1210,973.78,19.3785561,-99.21319415,Álvaro Obregón,CDMX
82,GOLONDRINAS 1RA SECCION,1270,1373.544821,19.38036702,-99.21207985,Álvaro Obregón,CDMX
83,GOLONDRINAS 2DA SECCION,1210,973.78,19.37641635,-99.21691245,Álvaro Obregón,CDMX
84,GRAL A ROSALES,1230,1592.7836,19.37794038,-99.24602119,Álvaro Obregón,CDMX
85,GRAL C  A  MADRAZO,1320,5178.804379,19.37919556,-99.25088979,Álvaro Obregón,CDMX
86,GUADALUPE INN,1000,10104.41464,19.35370526,-99.18677334,Álvaro Obregón,CDMX
87,HACIENDA DE GUADALUPE CHIMALISTAC,1030,7982.506885,19.35042737,-99.18127926,Álvaro Obregón,CDMX
88,HERON PROAL,1614,1347.945447,19.35799917,-99.23011215,Álvaro Obregón,CDMX
89,HOGAR Y REDENCION,1400,1219.55,19.36994145,-99.21356888,Álvaro Obregón,CDMX
90,ISIDRO FABELA,1100,2010.8,19.38636281,-99.20900325,Álvaro Obregón,CDMX
91,JALALPA,1209,954.3390265,19.37910072,-99.22862121,Álvaro Obregón,CDMX
92,JALALPA (AMPL),1296,803.32,19.3778356,-99.2329458,Álvaro Obregón,CDMX
93,JALALPA EL GRANDE,1150,1188.19,19.36871102,-99.24346883,Álvaro Obregón,CDMX
94,JALALPA TEPITO,1250,1082.966921,19.37393145,-99.23721077,Álvaro Obregón,CDMX
95,JARDINES DEL PEDREGAL,1900,4899.766953,19.31901441,-99.20876909,Álvaro Obregón,CDMX
96,JOSE MARIA PINO SUAREZ,1110,1967.59242,19.39577509,-99.19798201,Álvaro Obregón,CDMX
97,JURISTAS,1630,1365.53,19.3561181,-99.23623351,Álvaro Obregón,CDMX
98,LA ANGOSTURA,1770,1735.165692,19.33314153,-99.23247536,Álvaro Obregón,CDMX
99,LA ARAA,1500,1476.84,19.36350442,-99.24042295,Álvaro Obregón,CDMX
100,LA CANADA,1269,1120.872045,19.38210511,-99.22679574,Álvaro Obregón,CDMX
101,LA CASCADA,1470,1965.189749,19.37016107,-99.19847733,Álvaro Obregón,CDMX
102,LA CEBADA (AMPL),1210,1148.834627,19.38025318,-99.23352103,Álvaro Obregón,CDMX
103,LA CONCHITA,1100,2047.48,19.39127417,-99.20811188,Álvaro Obregón,CDMX
104,LA HERRADURA,1060,3105.446087,19.34565603,-99.21016613,Álvaro Obregón,CDMX
105,LA HUERTA,1230,1282.28,19.37881397,-99.23968959,Álvaro Obregón,CDMX
106,LA JOYA,1230,2010.8,19.38460547,-99.21162082,Álvaro Obregón,CDMX
107,LA LOMA,1376,9402.07,19.36949563,-99.24993096,Álvaro Obregón,CDMX
108,LA MARTINICA,1600,1829.905747,19.35958999,-99.2240095,Álvaro Obregón,CDMX
109,LA MEXICANA,1200,1091.386146,19.38223507,-99.23154794,Álvaro Obregón,CDMX
110,LA MEXICANA (AMPL),1260,961.1310526,19.38371633,-99.2281489,Álvaro Obregón,CDMX
111,LA MILAGROSA,1600,1109.985354,19.35142457,-99.23820138,Álvaro Obregón,CDMX
112,LA OTRA BANDA,1000,8381.417315,19.33654872,-99.1970036,Álvaro Obregón,CDMX
113,LA PALMITA,1110,951.2946825,19.38414512,-99.22637366,Álvaro Obregón,CDMX
114,LA PERA XOCHINAHUAC (U HAB),1618,1358.62,19.35912741,-99.22764858,Álvaro Obregón,CDMX
115,LA PRESA,1270,1349.71,19.38206395,-99.21170218,Álvaro Obregón,CDMX
116,LA PRESA SECCION HORNOS,1270,1028.74271,19.38231582,-99.21617109,Álvaro Obregón,CDMX
117,LADERA GRANDE O LA CEBADITA,1210,1171.291892,19.38046242,-99.23707393,Álvaro Obregón,CDMX
118,LAS AGUILAS,1010,2462.18,19.36022773,-99.20274323,Álvaro Obregón,CDMX
119,LAS AGUILAS (AMPL),1700,2045.382124,19.35083796,-99.2178449,Álvaro Obregón,CDMX
120,LAS AGUILAS SECC HORNOS,1600,2660.987955,19.3618534,-99.20454998,Álvaro Obregón,CDMX
121,LAS CUEVITAS,1210,2170.81,19.38654019,-99.22613216,Álvaro Obregón,CDMX
122,LAS PALMAS,1110,2033.37,19.3988964,-99.21115671,Álvaro Obregón,CDMX
123,LIBERACION PROLETARIA,1209,1133.39,19.38149568,-99.22986814,Álvaro Obregón,CDMX
124,LIBERALES DE 1857,1110,1545.18,19.39353287,-99.21240264,Álvaro Obregón,CDMX
125,LLANO REDONDO,1500,1770.088566,19.35551677,-99.24488843,Álvaro Obregón,CDMX
126,LOMAS DE AXOMIATLA,1050,2373.927092,19.34265588,-99.25230704,Álvaro Obregón,CDMX
127,LOMAS DE BECERRA,1279,1143.957283,19.38464058,-99.21676116,Álvaro Obregón,CDMX
128,LOMAS DE BECERRA (U HAB),1280,2010.8,19.38398609,-99.20069042,Álvaro Obregón,CDMX
129,LOMAS DE BECERRA ARVIDE (U HAB),1279,2010.8,19.38305339,-99.20688479,Álvaro Obregón,CDMX
130,LOMAS DE CAPULA,1270,1377.81,19.37941891,-99.21584426,Álvaro Obregón,CDMX
131,LOMAS DE CAPULIN,1110,956.3257955,19.3126989,-99.26875651,Álvaro Obregón,CDMX
132,LOMAS DE CENTENARIO (U HAB),1630,1365.53,19.35664802,-99.23502772,Álvaro Obregón,CDMX
133,LOMAS DE CHAMONTOYA,1857,838.0959594,19.31747247,-99.26801703,Álvaro Obregón,CDMX
134,LOMAS DE GUADALUPE,1588,2135.127782,19.34208304,-99.24401242,Álvaro Obregón,CDMX
135,LOMAS DE LA ERA,1860,1045.576093,19.32090605,-99.2627322,Álvaro Obregón,CDMX
136,LOMAS DE LAS AGUILAS,1600,1937.857451,19.34591267,-99.23547162,Álvaro Obregón,CDMX
137,LOMAS DE LOS ANGELES TETELPAN,1020,2133.966067,19.34354724,-99.21409825,Álvaro Obregón,CDMX
138,LOMAS DE LOS CEDROS,1840,1046.32,19.3251693,-99.25759896,Álvaro Obregón,CDMX
139,LOMAS DE NUEVO MEXICO,1250,1133.39,19.38191584,-99.23476852,Álvaro Obregón,CDMX
140,LOMAS DE PLATEROS (U HAB) I,1000,4675.73,19.36745721,-99.20589372,Álvaro Obregón,CDMX
141,LOMAS DE PLATEROS (U HAB) II,1400,4455.57199,19.36840847,-99.19709203,Álvaro Obregón,CDMX
142,LOMAS DE PUERTA GRANDE,1130,1255.644449,19.35623814,-99.23167681,Álvaro Obregón,CDMX
143,LOMAS DE SAN ANGEL INN,1790,4223.908081,19.34489443,-99.20473999,Álvaro Obregón,CDMX
144,LOMAS DE SANTA FE,1210,5086.32,19.38676554,-99.24107122,Álvaro Obregón,CDMX
145,LOMAS DE SANTA FE II,1219,13973.1903,19.36976315,-99.25946966,Álvaro Obregón,CDMX
146,LOMAS DE SANTO DOMINGO,1100,1499.73,19.39517683,-99.20154067,Álvaro Obregón,CDMX
147,LOMAS DE SANTO DOMINGO (AMPL),1100,1499.73,19.39428319,-99.20213932,Álvaro Obregón,CDMX
148,LOMAS DE TARANGO,1620,1957.65969,19.36323991,-99.21565046,Álvaro Obregón,CDMX
149,LOMAS DE TETELPAN,1030,2938.942126,19.3450234,-99.21623808,Álvaro Obregón,CDMX
150,LORETO,1090,6180.97,19.34080067,-99.19269208,Álvaro Obregón,CDMX
151,LOS CEDROS,1500,1476.84,19.36394133,-99.23861872,Álvaro Obregón,CDMX
152,LOS GAMITOS,1210,1282.28,19.37899668,-99.23858824,Álvaro Obregón,CDMX
153,MARGARITA M DE JUAREZ,1210,1396.618679,19.38186229,-99.23640383,Álvaro Obregón,CDMX
154,MARIA G DE GARCIA RUIZ,1140,2048.649703,19.38760203,-99.21168494,Álvaro Obregón,CDMX
155,MARTIRES DE TACUBAYA,1160,2010.8,19.38701431,-99.21345708,Álvaro Obregón,CDMX
156,MERCED GOMEZ,3930,3043.385196,19.36588377,-99.20018144,Álvaro Obregón,CDMX
157,METROPOLITANO (U HAB),1610,855.6,19.36045673,-99.21829843,Álvaro Obregón,CDMX
158,MIGUEL GAONA ARMENTA,1380,1416.080909,19.35537006,-99.25066176,Álvaro Obregón,CDMX
159,MIGUEL HIDALGO,1080,2318.121421,19.33680178,-99.21497684,Álvaro Obregón,CDMX
160,MILPA DEL CEDRO,1505,1026.066667,19.35359241,-99.25692152,Álvaro Obregón,CDMX
161,MINAS DE CRISTO,1180,1655.004556,19.37987806,-99.20037443,Álvaro Obregón,CDMX
162,MOLINO DE ROSAS,1400,2767.479264,19.37244774,-99.19939143,Álvaro Obregón,CDMX
163,MOLINO DE ROSAS (AMPL),1410,2768.64,19.36995095,-99.20150713,Álvaro Obregón,CDMX
164,MOLINO DE SANTO DOMINGO,1100,2032.97,19.39400066,-99.20788179,Álvaro Obregón,CDMX
165,MOLINO DE SANTO DOMINGO (U HAB),1100,2047.48,19.39344058,-99.2036343,Álvaro Obregón,CDMX
166,OCHO DE AGOSTO,1140,4188.303944,19.39319529,-99.18944717,Álvaro Obregón,CDMX
167,OCOTILLOS,1700,1963.213885,19.34058837,-99.23781207,Álvaro Obregón,CDMX
168,OLIVAR DE LOS PADRES,1780,3030.193166,19.33738268,-99.22896012,Álvaro Obregón,CDMX
169,OLIVAR DEL CONDE 1RA SECCION I,1400,1950.142662,19.37526528,-99.20469722,Álvaro Obregón,CDMX
170,OLIVAR DEL CONDE 1RA SECCION II,1100,1910.510971,19.37466257,-99.2098116,Álvaro Obregón,CDMX
171,OLIVAR DEL CONDE 2DA SECCION I,1298,1435.28,19.37220858,-99.21595357,Álvaro Obregón,CDMX
172,OLIVAR DEL CONDE 2DA SECCION II,1408,1435.28,19.37153664,-99.22043588,Álvaro Obregón,CDMX
173,PALMAS,1110,1483.05,19.37631268,-99.21283614,Álvaro Obregón,CDMX
174,PALMAS AXOTITLA,1410,1163.226213,19.35299046,-99.23677775,Álvaro Obregón,CDMX
175,PARAJE EL CABALLITO,1856,1029.665273,19.31505617,-99.27141997,Álvaro Obregón,CDMX
176,PARQUE RESIDENCIAL SAN ANTONIO (U HAB),1180,4299.89,19.38637619,-99.19276246,Álvaro Obregón,CDMX
177,PASEO DE LAS LOMAS-SAN GABRIEL,1330,8620.421074,19.37197111,-99.26404403,Álvaro Obregón,CDMX
178,PILOTO (ADOLFO LOPEZ MATEOS),1290,1368.571217,19.37192888,-99.23257106,Álvaro Obregón,CDMX
179,PILOTO (ADOLFO LOPEZ MATEOS) (AMPL),1290,1320.378872,19.37211594,-99.22664292,Álvaro Obregón,CDMX
180,PODER POPULAR,1600,2420.77,19.3639673,-99.20259616,Álvaro Obregón,CDMX
181,POLVORA,1100,2008.542353,19.39223691,-99.20474643,Álvaro Obregón,CDMX
182,PONCIANO ARRIAGA,1600,1291.550667,19.35767486,-99.22731075,Álvaro Obregón,CDMX
183,PRADOS LA PROVIDENCIA,1550,1342.123428,19.35765639,-99.23805976,Álvaro Obregón,CDMX
184,PREDIO LA ANGOSTURA,1780,3137.23,19.32479599,-99.23956402,Álvaro Obregón,CDMX
185,PRESIDENTES,1290,1545.37,19.37804759,-99.22189457,Álvaro Obregón,CDMX
186,PRESIDENTES 1RA (AMPL),1259,1545.37,19.37640986,-99.22484364,Álvaro Obregón,CDMX
187,PRESIDENTES 2DA (AMPL),1160,1545.37,19.37407171,-99.22782018,Álvaro Obregón,CDMX
188,PRIVADA CENTENARIO,1430,1659.2,19.36099201,-99.23047737,Álvaro Obregón,CDMX
189,PROF JOSE ARTURO LOPEZ,1610,855.6,19.35963563,-99.21991965,Álvaro Obregón,CDMX
190,PROGRESO TIZAPAN,1000,3448.640872,19.33954902,-99.2050799,Álvaro Obregón,CDMX
191,PUEBLO NUEVO,1240,1678.077945,19.38108892,-99.23834892,Álvaro Obregón,CDMX
192,PUENTE COLORADO,1730,2202.764701,19.34798085,-99.2308624,Álvaro Obregón,CDMX
193,PUENTE COLORADO (AMPL),1730,1336.880828,19.34580099,-99.2295125,Álvaro Obregón,CDMX
194,PUNTA DE CEHUAYO,1540,1057.83,19.36070141,-99.24133369,Álvaro Obregón,CDMX
195,REACOMODO EL CUERNITO,1220,1509.196793,19.38285753,-99.2085476,Álvaro Obregón,CDMX
196,REACOMODO PINO SUAREZ,1130,2194.91,19.39594951,-99.20408019,Álvaro Obregón,CDMX
197,REAL DEL MONTE,1125,1499.73,19.39600961,-99.20190164,Álvaro Obregón,CDMX
198,RESIDENCIAL MARIA ISABEL,1780,2949.47,19.3354388,-99.22333701,Álvaro Obregón,CDMX
199,RINCON DE LA BOLSA,1800,1233.2,19.33179035,-99.25246027,Álvaro Obregón,CDMX
200,SAN ANGEL,1000,9364.296856,19.34611539,-99.19137078,Álvaro Obregón,CDMX
201,SAN ANGEL INN,1000,7740.471654,19.34905528,-99.1979807,Álvaro Obregón,CDMX
202,SAN BARTOLO AMEYALCO (PBLO),1800,1944.360464,19.33139269,-99.26782735,Álvaro Obregón,CDMX
203,SAN CLEMENTE,1740,2261.609972,19.34898926,-99.22573149,Álvaro Obregón,CDMX
204,SAN GABRIEL,1310,2931.46,19.37935908,-99.25586495,Álvaro Obregón,CDMX
205,SAN PEDRO DE LOS PINOS,1150,4299.89,19.38956241,-99.1910951,Álvaro Obregón,CDMX
206,SANTA FE,1376,2857.838276,19.38290089,-99.23913198,Álvaro Obregón,CDMX
207,SANTA FE (U HAB),1120,2349.13,19.38864258,-99.20651279,Álvaro Obregón,CDMX
208,SANTA FE KM 8.5,1210,2840.195122,19.37979653,-99.24746741,Álvaro Obregón,CDMX
209,SANTA LUCIA,1500,1324.075852,19.35746316,-99.2544876,Álvaro Obregón,CDMX
210,SANTA LUCIA (PBLO),1500,1381.377872,19.35843613,-99.25669404,Álvaro Obregón,CDMX
211,SANTA LUCIA REACOMODO,1500,1043.72,19.35570526,-99.25906867,Álvaro Obregón,CDMX
212,SANTA MARIA NONOALCO,1420,2729.68,19.38010595,-99.19387354,Álvaro Obregón,CDMX
213,SANTA ROSA XOCHIAC (PBLO),1830,865.8377866,19.32841171,-99.28540909,Álvaro Obregón,CDMX
214,SEARS ROEBUCK (U HAB),1120,2400.71,19.40094836,-99.19535637,Álvaro Obregón,CDMX
215,TARANGO (U HAB),1618,2818.65,19.36042508,-99.22362978,Álvaro Obregón,CDMX
216,TECOLALCO,1230,1282.28,19.37901543,-99.23712474,Álvaro Obregón,CDMX
217,TEJOCOTE,1240,812.3,19.38269971,-99.2177057,Álvaro Obregón,CDMX
218,TEPEACA,1550,1246.62,19.35886613,-99.23673317,Álvaro Obregón,CDMX
219,TEPEACA (AMPL),1550,1057.83,19.36102135,-99.23459373,Álvaro Obregón,CDMX
220,TEPOPOTLA,1538,973.1437634,19.36206991,-99.25153514,Álvaro Obregón,CDMX
221,TETELPAN,1700,1974.239579,19.34042823,-99.23347025,Álvaro Obregón,CDMX
222,TETELPAN (PBLO),1200,2344.710993,19.34210106,-99.22530197,Álvaro Obregón,CDMX
223,TETLALPAN,1507,1043.72,19.35459634,-99.25777875,Álvaro Obregón,CDMX
224,TIZAMPAMPANO,1700,2793.65,19.34212119,-99.22083314,Álvaro Obregón,CDMX
225,TIZAPAN_TIZAPAN SAN ANGEL,1000,6465.30461,19.3361753,-99.20104786,Álvaro Obregón,CDMX
226,TLACOPAC,1000,7041.332867,19.35494255,-99.19384017,Álvaro Obregón,CDMX
227,TLACOYAQUE,1600,994.9908889,19.32147897,-99.26525448,Álvaro Obregón,CDMX
228,TLACOYAQUE (AMPL),1859,961.2532877,19.32214243,-99.26825189,Álvaro Obregón,CDMX
229,TLACOYAQUE (BARR),1859,1171.91,19.32376693,-99.26629229,Álvaro Obregón,CDMX
230,TLACUITLAPA,1600,1339.741044,19.35346994,-99.24079762,Álvaro Obregón,CDMX
231,TLACUITLAPA 2DO REACOMODO (AMPL),1650,1335.376818,19.35443655,-99.23544785,Álvaro Obregón,CDMX
232,TLAPECHICO,1210,1320.71,19.37812978,-99.24393041,Álvaro Obregón,CDMX
233,TOLTECA,1140,1788.36,19.39179951,-99.19613571,Álvaro Obregón,CDMX
234,TORRES DE MIXCOAC (U HAB),1480,2768.64,19.37113684,-99.19324472,Álvaro Obregón,CDMX
235,TORRES DE POTRERO,1840,1360.097044,19.32999704,-99.24918156,Álvaro Obregón,CDMX
236,TORRES SAN ANTONIO (U HAB),1180,4299.89,19.38510814,-99.19465567,Álvaro Obregón,CDMX
237,TORRES SAN PEDRO (U HAB),1150,4299.89,19.39249693,-99.19240187,Álvaro Obregón,CDMX
238,UNIDAD POPULAR TEPEACA,1550,1735.22,19.3593324,-99.23954366,Álvaro Obregón,CDMX
239,UNION OLIVOS,1290,1108.463143,19.36413509,-99.25011458,Álvaro Obregón,CDMX
240,UNION POPULAR EMILIANO ZAPATA (U HAB),1400,1824.38,19.3713077,-99.20985359,Álvaro Obregón,CDMX
241,VALENTIN GOMEZ FARIAS,1430,1376.502447,19.35958734,-99.23251468,Álvaro Obregón,CDMX
242,VILLA PROGRESISTA,1540,1375.854259,19.35646044,-99.24216233,Álvaro Obregón,CDMX
243,VILLA SOLIDARIDAD,1275,958.4197872,19.38313984,-99.21936425,Álvaro Obregón,CDMX
244,VILLA VERDUN,1480,2542.32478,19.33869692,-99.25693567,Álvaro Obregón,CDMX
245,ZENON DELGADO,1120,2010.8,19.38852888,-99.21582611,Álvaro Obregón,CDMX
246,ZOTOLTITLA,1650,1119.84,19.35251384,-99.23494353,Álvaro Obregón,CDMX
0,AGUILERA,2900,2612.110723,19.47280797,-99.15586832,Azcapotzalco,CDMX
1,ALDANA,2900,1932.008517,19.47078805,-99.14998174,Azcapotzalco,CDMX
2,AMPLIACION PETROLERA,2460,2353.03,19.48294324,-99.1948792,Azcapotzalco,CDMX
3,ANGEL ZIMBRON,2080,2753.097422,19.46740333,-99.18908268,Azcapotzalco,CDMX
4,ARENAL,2960,2318.07,19.46494795,-99.15210624,Azcapotzalco,CDMX
5,CENTRO DE AZCAPOTZALCO,2000,3111.17,19.48092136,-99.18624676,Azcapotzalco,CDMX
6,CLAVERIA,2030,2650.011689,19.46602424,-99.18193702,Azcapotzalco,CDMX
7,COLTONGO,2230,2467.22,19.48165523,-99.15339524,Azcapotzalco,CDMX
8,COSMOPOLITA,2650,2651.236543,19.47482126,-99.16325106,Azcapotzalco,CDMX
9,COSMOPOLITA (AMPL),2290,2729.530538,19.47230245,-99.16080093,Azcapotzalco,CDMX
10,CRUZ ROJA TEPANTONGO (U HAB),2120,2541.94,19.50025014,-99.18482509,Azcapotzalco,CDMX
11,CUITLHUAC 1 Y 2 (U HAB),2500,4725.731474,19.47215726,-99.16758579,Azcapotzalco,CDMX
12,CUITLHUAC 3 Y 4 (U HAB),2500,4319.689222,19.47237535,-99.17197288,Azcapotzalco,CDMX
13,DEL GAS,2900,1832.362242,19.47048187,-99.15920632,Azcapotzalco,CDMX
14,DEL GAS (AMPL),2790,1832.42,19.46605672,-99.15755801,Azcapotzalco,CDMX
15,DEL MAESTRO,2000,2213.86,19.48246656,-99.18216967,Azcapotzalco,CDMX
16,DEL RECREO,2000,2510.09,19.47314369,-99.18414864,Azcapotzalco,CDMX
17,DEMET (U HAB),2020,2541.94,19.48751056,-99.18095026,Azcapotzalco,CDMX
18,ECOLOGICA NOVEDADES IMPACTO (U HAB),2000,2541.94,19.50799555,-99.19046228,Azcapotzalco,CDMX
19,EL JAGUEY-ESTACION PANTACO,2000,2535.112564,19.48587584,-99.17255979,Azcapotzalco,CDMX
20,EL ROSARIO A (U HAB),2100,3185.17,19.51109069,-99.20721938,Azcapotzalco,CDMX
21,EL ROSARIO B (U HAB),2000,3140.01665,19.5123689,-99.20196303,Azcapotzalco,CDMX
22,EL ROSARIO C (U HAB),2100,3192.865228,19.50700425,-99.20353601,Azcapotzalco,CDMX
23,EUZKADI,2660,2581.3,19.47730734,-99.16031088,Azcapotzalco,CDMX
24,EX-HACIENDA EL ROSARIO,2000,2343.315789,19.49621683,-99.20978684,Azcapotzalco,CDMX
25,FERRERIA,2230,2280.012429,19.50162676,-99.17389475,Azcapotzalco,CDMX
26,FERRERIA (U HAB),2230,2364.84,19.49880974,-99.17683969,Azcapotzalco,CDMX
27,FRANCISCO VILLA (U HAB),2400,2596.924153,19.4965325,-99.20516045,Azcapotzalco,CDMX
28,FUENTES DE AZCAPOTZALCO-PARQUES DE AZCAPOTZALCO (U HAB),2000,2748.99,19.47504567,-99.18971471,Azcapotzalco,CDMX
29,HOGAR Y SEGURIDAD/NUEVA SANTA MARIA,2800,2883.203062,19.46833087,-99.1681288,Azcapotzalco,CDMX
30,HOGARES FERROCARRILEROS (U HAB),2500,4297.67,19.47357233,-99.16540783,Azcapotzalco,CDMX
31,HUAUTLA DE LAS SALINAS (BARR),2300,2369.732353,19.48909866,-99.15935532,Azcapotzalco,CDMX
32,IGNACIO ALLENDE,2810,1832.42,19.46670068,-99.16188621,Azcapotzalco,CDMX
33,INDUSTRIAL VALLEJO (U HAB),2300,2417.89196,19.49616178,-99.16384763,Azcapotzalco,CDMX
34,ISSFAM LAS ARMAS (U HAB),2710,1789.82,19.48616026,-99.21597044,Azcapotzalco,CDMX
35,JARDIN AZPEITIA,2530,2513.214805,19.47407224,-99.17469598,Azcapotzalco,CDMX
36,JARDINES CEYLAN (U HAB),2300,2697.52,19.48241713,-99.16466686,Azcapotzalco,CDMX
37,LA PRECIOSA,2160,1989.34,19.48617559,-99.19381003,Azcapotzalco,CDMX
38,LA RAZA,2960,2160.292939,19.46569763,-99.14746913,Azcapotzalco,CDMX
39,LAS SALINAS,2000,2697.52,19.48793497,-99.16482103,Azcapotzalco,CDMX
40,LIBERACION,2900,1841.702363,19.47058376,-99.15239872,Azcapotzalco,CDMX
41,LIBERTAD,2020,2322.434585,19.47856576,-99.17766604,Azcapotzalco,CDMX
42,LOS REYES (BARR),2000,2355.0,19.48547447,-99.18226478,Azcapotzalco,CDMX
43,MANUEL RIVERA ANAYA CROC I (U HAB),2109,2541.94,19.51038031,-99.19428545,Azcapotzalco,CDMX
44,MIGUEL HIDALGO (U HAB),2450,2597.24,19.49366841,-99.19874158,Azcapotzalco,CDMX
45,MONTE ALTO,2640,2581.3,19.47994576,-99.15628844,Azcapotzalco,CDMX
46,NEXTENGO (BARR),2000,2748.99,19.47469249,-99.18826266,Azcapotzalco,CDMX
47,NUEVA EL ROSARIO,2100,2541.94,19.50196908,-99.18975335,Azcapotzalco,CDMX
48,NUEVA ESPAA,2110,2541.94,19.49785901,-99.18640764,Azcapotzalco,CDMX
49,NUEVA SANTA MARIA,2800,2715.378543,19.46287098,-99.16805446,Azcapotzalco,CDMX
50,NUEVO SAN RAFAEL (BARR),2010,2354.24,19.48905669,-99.18796779,Azcapotzalco,CDMX
51,OBRERO POPULAR,2600,2567.558254,19.46416526,-99.17476281,Azcapotzalco,CDMX
52,PANTACO (U HAB),2020,2714.55,19.48577501,-99.17307322,Azcapotzalco,CDMX
53,PASTEROS,2000,1878.83,19.49392413,-99.19562088,Azcapotzalco,CDMX
54,PATRIMONIO FAMILIAR,2480,2318.07,19.46739688,-99.14978997,Azcapotzalco,CDMX
55,PEMEX PRADOS DEL ROSARIO (U HAB),2410,3520.384841,19.50417488,-99.20757956,Azcapotzalco,CDMX
56,PETROLERA,2480,2362.54,19.48529726,-99.19934296,Azcapotzalco,CDMX
57,PLENITUD,2099,2385.164547,19.4731873,-99.19578087,Azcapotzalco,CDMX
58,PORVENIR,2600,1902.921315,19.4710237,-99.14681958,Azcapotzalco,CDMX
59,POTRERO DEL LLANO,2670,2662.226571,19.47477024,-99.16031115,Azcapotzalco,CDMX
60,PRADOS DEL ROSARIO,2410,2226.12,19.50362987,-99.20951084,Azcapotzalco,CDMX
61,PRESIDENTE MADERO (U HAB),2140,2597.24,19.49583826,-99.20187357,Azcapotzalco,CDMX
62,PRO HOGAR I,2600,3157.267213,19.47498756,-99.15048801,Azcapotzalco,CDMX
63,PRO HOGAR II,2600,3050.6498,19.47636895,-99.15582763,Azcapotzalco,CDMX
64,PROVIDENCIA,2070,1747.66,19.49273079,-99.21143197,Azcapotzalco,CDMX
65,REYNOSA TAMAULIPAS,2120,2541.94,19.49406918,-99.18750915,Azcapotzalco,CDMX
66,ROSENDO SALAZAR (CONJ HAB),2000,2597.24,19.48705169,-99.20581468,Azcapotzalco,CDMX
67,SAN  MIGUEL AMANTLA (PBLO),2700,1761.11,19.47585628,-99.20438426,Azcapotzalco,CDMX
68,SAN ALVARO,2090,2549.654815,19.46126471,-99.18325852,Azcapotzalco,CDMX
69,SAN ANDRES (BARR),2020,2541.94,19.49195661,-99.18015759,Azcapotzalco,CDMX
70,SAN ANDRES (PBLO),2200,2541.94,19.49319643,-99.18398435,Azcapotzalco,CDMX
71,SAN ANDRES DE LAS SALINAS (PBLO),2300,2316.270145,19.49003982,-99.15434829,Azcapotzalco,CDMX
72,SAN ANTONIO (FRACC),2000,2355.775591,19.48010729,-99.20494897,Azcapotzalco,CDMX
73,SAN BARTOLO CAHUALTONGO (PBLO),2070,2362.54,19.48183029,-99.20024135,Azcapotzalco,CDMX
74,SAN BERNABE (BARR),2800,2969.598796,19.46793636,-99.17358688,Azcapotzalco,CDMX
75,SAN FRANCISCO TETECALA (PBLO),2000,2491.42667,19.48087994,-99.19117268,Azcapotzalco,CDMX
76,SAN FRANCISCO XOCOTITLA,2940,2117.98,19.46868604,-99.14712898,Azcapotzalco,CDMX
77,SAN JUAN TLIHUACA (PBLO),2400,2597.24,19.49145016,-99.2033748,Azcapotzalco,CDMX
78,SAN MARCOS (BARR),2009,2541.94,19.48824211,-99.18237691,Azcapotzalco,CDMX
79,SAN MARTIN XOCHINAHUAC (PBLO),2120,2541.94,19.49846348,-99.19471954,Azcapotzalco,CDMX
80,SAN MATEO,2000,2662.532846,19.48304562,-99.19127777,Azcapotzalco,CDMX
81,SAN PABLO 396-CONJ HAB SAN PABLO (U HAB),2020,2541.94,19.50105631,-99.1856052,Azcapotzalco,CDMX
82,SAN PABLO XALPA (U HAB),2000,2541.94,19.50520425,-99.18604254,Azcapotzalco,CDMX
83,SAN PEDRO XALPA (AMPL) I,2710,1820.21,19.48056601,-99.21629359,Azcapotzalco,CDMX
84,SAN PEDRO XALPA (AMPL) II,2710,1820.21,19.47585914,-99.21705681,Azcapotzalco,CDMX
85,SAN PEDRO XALPA (PBLO),2470,1789.82,19.48432715,-99.20937116,Azcapotzalco,CDMX
86,SAN RAFAEL,2010,2354.24,19.48654804,-99.18771296,Azcapotzalco,CDMX
87,SAN SALVADOR XOCHIMANCA,2870,2758.299531,19.46002021,-99.17323152,Azcapotzalco,CDMX
88,SAN SEBASTIAN,2000,2541.94,19.48061134,-99.17636377,Azcapotzalco,CDMX
89,SANTA APOLONIA (BARR),2770,2353.03,19.4755338,-99.19158928,Azcapotzalco,CDMX
90,SANTA BARBARA (PBLO),2230,2463.126467,19.49603039,-99.17840171,Azcapotzalco,CDMX
91,SANTA CATARINA (PBLO),2230,2541.94,19.49162407,-99.17416272,Azcapotzalco,CDMX
92,SANTA CRUZ ACAYUCAN (PBLO),2770,2159.84,19.47559072,-99.19458817,Azcapotzalco,CDMX
93,SANTA CRUZ DE LAS SALINAS,2300,2534.574694,19.48771584,-99.15569641,Azcapotzalco,CDMX
94,SANTA INES,2140,1448.32,19.49373328,-99.19120053,Azcapotzalco,CDMX
95,SANTA LUCIA (BARR),2000,2329.361696,19.48008521,-99.19609818,Azcapotzalco,CDMX
96,SANTA MARIA MALINALCO (PBLO),2000,1885.2,19.47816808,-99.18179418,Azcapotzalco,CDMX
97,SANTIAGO AHUIZOTLA (PBLO),2700,1703.821986,19.4757582,-99.21067865,Azcapotzalco,CDMX
98,SANTO DOMINGO (PBLO),2000,2876.503884,19.48606872,-99.19116258,Azcapotzalco,CDMX
99,SANTO TOMAS,2020,2541.94,19.48453406,-99.17827774,Azcapotzalco,CDMX
100,SECTOR NAVAL,2060,2519.104758,19.47001343,-99.17685264,Azcapotzalco,CDMX
101,SINDICATO MEXICANO DE ELECTRICISTAS,2000,2285.759483,19.47420755,-99.17874294,Azcapotzalco,CDMX
102,TEZOZOMOC,2459,1989.34,19.4893404,-99.198069,Azcapotzalco,CDMX
103,TIERRA NUEVA,2130,2518.781843,19.49962665,-99.20070093,Azcapotzalco,CDMX
104,TLATILCO,2800,1832.42,19.46066605,-99.16281019,Azcapotzalco,CDMX
105,TLATILCO (U HAB),2800,2487.878824,19.46279916,-99.16392858,Azcapotzalco,CDMX
106,TRABAJADORES DEL HIERRO,2650,2581.3,19.47841078,-99.15115787,Azcapotzalco,CDMX
107,UN HOGAR PARA CADA TRABAJADOR,2050,2779.6,19.47372175,-99.17619285,Azcapotzalco,CDMX
108,VICTORIA DE LAS DEMOCRACIAS,2800,2235.303756,19.46845385,-99.16416181,Azcapotzalco,CDMX
109,VILLAS AZCAPOTZALCO (U HAB),2169,2836.82,19.48973637,-99.19196101,Azcapotzalco,CDMX
110,XOCHINAHUAC (U HAB),2000,2541.94,19.50783385,-99.19452254,Azcapotzalco,CDMX
0,PORTALES II,3300,3043.363669,19.36709592,-99.14856736,Benito Juárez,CDMX
1,OCHO DE AGOSTO,3820,5843.884139,19.39407837,-99.18686582,Benito Juárez,CDMX
2,DEL VALLE I,3100,7678.251294,19.39795199,-99.16553701,Benito Juárez,CDMX
3,XOCO,3330,6316.729176,19.36283518,-99.16465003,Benito Juárez,CDMX
4,NONOALCO,3700,5510.670366,19.3810119,-99.18844913,Benito Juárez,CDMX
5,ATENOR SALAS,3000,3981.34497,19.40302784,-99.14779163,Benito Juárez,CDMX
6,EXTREMADURA INSURGENTES,3000,7036.325875,19.37656764,-99.18092339,Benito Juárez,CDMX
7,GENERAL PEDRO MARIA ANAYA,3000,5941.398729,19.36109407,-99.15922201,Benito Juárez,CDMX
8,PIEDAD NARVARTE,3000,4752.609394,19.40330356,-99.15393902,Benito Juárez,CDMX
9,PORTALES IV,3000,3316.954585,19.35942276,-99.14900935,Benito Juárez,CDMX
10,IZTACCIHUATL,3020,3129.022376,19.39025127,-99.13581698,Benito Juárez,CDMX
11,NARVARTE I,3020,4236.383786,19.39997053,-99.15257525,Benito Juárez,CDMX
12,NARVARTE II,3020,5093.056897,19.39705414,-99.15252551,Benito Juárez,CDMX
13,NARVARTE III,3020,4541.139261,19.39211218,-99.15864652,Benito Juárez,CDMX
14,NARVARTE IV,3020,5475.564554,19.39254994,-99.15149207,Benito Juárez,CDMX
15,NARVARTE V,3020,5126.552726,19.38617732,-99.15694731,Benito Juárez,CDMX
16,NARVARTE VI,3020,4703.195715,19.38677557,-99.15045868,Benito Juárez,CDMX
17,VERTIZ NARVARTE,3020,4900.296341,19.38196451,-99.15346174,Benito Juárez,CDMX
18,CENTRO URBANO PRESIDENTE ALEMAN (U HAB),3100,10774.04934,19.37094699,-99.17208938,Benito Juárez,CDMX
19,CIUDAD DE LOS DEPORTES,3100,7443.564527,19.38362627,-99.17979919,Benito Juárez,CDMX
20,DEL VALLE II,3100,7832.678007,19.39260219,-99.16712543,Benito Juárez,CDMX
21,DEL VALLE III,3100,7568.97083,19.38748434,-99.16754304,Benito Juárez,CDMX
22,DEL VALLE IV,3100,7286.619857,19.38229733,-99.16776981,Benito Juárez,CDMX
23,DEL VALLE V,3100,8793.208281,19.37651476,-99.16868812,Benito Juárez,CDMX
24,DEL VALLE VI,3100,8132.476503,19.37560985,-99.16426277,Benito Juárez,CDMX
25,DEL VALLE VII,3100,9365.441705,19.3688028,-99.17210654,Benito Juárez,CDMX
26,INSURGENTES SAN BORJA,3100,9079.361576,19.38383872,-99.17430615,Benito Juárez,CDMX
27,TLACOQUEMECATL DEL VALLE,3200,7594.874563,19.37637407,-99.17490182,Benito Juárez,CDMX
28,ACTIPAN,3230,7835.214069,19.36933442,-99.17817926,Benito Juárez,CDMX
29,ACACIAS,3240,8528.577114,19.36367622,-99.17367551,Benito Juárez,CDMX
30,MIRAVALLE,3300,3020.730313,19.36142572,-99.14105042,Benito Juárez,CDMX
31,PORTALES I,3300,2816.016593,19.37073174,-99.14860423,Benito Juárez,CDMX
32,PORTALES III,3300,3115.346987,19.3631547,-99.14894491,Benito Juárez,CDMX
33,RESIDENCIAL EMPERADORES,3310,4423.785389,19.36837269,-99.15805478,Benito Juárez,CDMX
34,STA CRUZ ATOYAC,3310,5193.082042,19.36710794,-99.15999549,Benito Juárez,CDMX
35,ALAMOS I,3400,5466.815399,19.4004091,-99.14088985,Benito Juárez,CDMX
36,ALAMOS II,3400,5520.486587,19.39460152,-99.14238722,Benito Juárez,CDMX
37,NIOS HEROES DE CHAPULTEPEC,3400,4237.713762,19.38611266,-99.14423287,Benito Juárez,CDMX
38,JOSEFA ORTIZ DE DOMINGUEZ,3410,4408.168607,19.38762736,-99.14056248,Benito Juárez,CDMX
39,MIGUEL ALEMAN,3410,4638.627704,19.38973089,-99.14451923,Benito Juárez,CDMX
40,POSTAL,3410,3170.130689,19.3906707,-99.1417112,Benito Juárez,CDMX
41,VILLA DE CORTES,3410,2806.328398,19.38742342,-99.13610191,Benito Juárez,CDMX
42,AMERICAS UNIDAS-DEL LAGO,3430,4228.090756,19.38212361,-99.14154723,Benito Juárez,CDMX
43,NATIVITAS,3500,2548.185782,19.38142437,-99.13738927,Benito Juárez,CDMX
44,MODERNA,3510,3695.97665,19.39600076,-99.13485359,Benito Juárez,CDMX
45,MARIA DEL CARMEN,3540,3746.505638,19.37551764,-99.1381936,Benito Juárez,CDMX
46,ALBERT,3560,3691.195239,19.37051067,-99.13905079,Benito Juárez,CDMX
47,PORTALES ORIENTE,3570,3004.794375,19.36612399,-99.14019848,Benito Juárez,CDMX
48,ZACAHUITZCO,3570,3753.625924,19.37332528,-99.13874956,Benito Juárez,CDMX
49,ERMITA,3590,3372.500455,19.3585345,-99.141205,Benito Juárez,CDMX
50,PERIODISTA FRANCISCO ZARCO,3620,4952.145152,19.38255994,-99.14621612,Benito Juárez,CDMX
51,INDEPENDENCIA,3630,4223.773284,19.37983449,-99.14811379,Benito Juárez,CDMX
52,LETRAN VALLE,3650,4694.694388,19.37599692,-99.1556256,Benito Juárez,CDMX
53,SAN SIMON TICUMAC,3660,3831.065545,19.37464067,-99.1448126,Benito Juárez,CDMX
54,NAPOLES (AMPL),3710,9109.335788,19.38724849,-99.17799363,Benito Juárez,CDMX
55,NOCHE BUENA,3710,7113.239654,19.38097299,-99.17862201,Benito Juárez,CDMX
56,SAN JUAN,3730,6865.054039,19.37834061,-99.184382,Benito Juárez,CDMX
57,SAN PEDRO DE LOS  PINOS,3800,4624.303143,19.39036299,-99.1850454,Benito Juárez,CDMX
58,NAPOLES,3840,10237.0432,19.39417066,-99.17582765,Benito Juárez,CDMX
59,SAN JOSE INSURGENTES,3900,7618.185221,19.36602411,-99.18538437,Benito Juárez,CDMX
60,MIXCOAC,3910,5217.060706,19.37272399,-99.19011704,Benito Juárez,CDMX
61,INSURGENTES MIXCOAC,3920,7745.848262,19.3726474,-99.18292873,Benito Juárez,CDMX
62,MERCED GOMEZ,3930,6288.754927,19.36547549,-99.18984561,Benito Juárez,CDMX
63,CREDITO CONSTRUCTOR,3940,6360.219968,19.36529204,-99.18022677,Benito Juárez,CDMX
0,CIUDAD UNIVERSITARIA,4510,6350.760884,19.3357402,-99.19419933,Coyoacán,CDMX
1,SAN DIEGO CHURUBUSCO,4120,5732.474639,19.35576419,-99.14893183,Coyoacán,CDMX
2,LOS OLIVOS (FRACC),4890,3304.194678,19.31357318,-99.13177669,Coyoacán,CDMX
3,CHIMALISTAC,4319,5403.183655,19.34222862,-99.18487855,Coyoacán,CDMX
4,SANTA URSULA COAPA (PBLO),4650,3769.634117,19.31044083,-99.14424633,Coyoacán,CDMX
5,PRESIDENTES EJIDALES SEGUNDA SECCION,4470,3186.007275,19.32580326,-99.12371035,Coyoacán,CDMX
6,SAN MATEO (BARR),4120,5577.574072,19.35161096,-99.14850567,Coyoacán,CDMX
7,BOSQUES DE TETLAMEYA,4730,5782.922653,19.29908734,-99.15356662,Coyoacán,CDMX
8,JARDINES DEL PEDREGAL,4500,5844.597116,19.30692128,-99.19024741,Coyoacán,CDMX
9,PEDREGAL DE SAN ANGEL (AMPL),4500,4679.914906,19.30684629,-99.19727903,Coyoacán,CDMX
10,CTM VIIA CULHUACAN (U HAB),4489,3273.75,19.31923203,-99.10512937,Coyoacán,CDMX
11,CAMPESTRE CHURUBUSCO,4200,3980.103282,19.34543131,-99.1350432,Coyoacán,CDMX
12,INSURGENTES CUICUILCO,4530,5780.307133,19.30522149,-99.1820913,Coyoacán,CDMX
13,INFONAVIT CULHUACAN ZONA 2 (U HAB),4440,3273.75,19.33017346,-99.11920343,Coyoacán,CDMX
14,TAXQUENA,4250,6954.33,19.33931492,-99.12324162,Coyoacán,CDMX
15,ALIANZA POPULAR REVOLUCIONARIA NORTE (U HAB),4000,4778.68,19.31697979,-99.11774123,Coyoacán,CDMX
16,ALIANZA POPULAR REVOLUCIONARIA ORIENTE (U HAB),4000,4712.131928,19.31410109,-99.11691476,Coyoacán,CDMX
17,CAMPESTRE COYOACAN (FRACC),4000,3180.909364,19.30872223,-99.11710682,Coyoacán,CDMX
18,CTM VI CULHUACAN (U HAB),4000,3273.75,19.32351469,-99.11756731,Coyoacán,CDMX
19,DEL CARMEN,4000,5502.548512,19.35457535,-99.1612987,Coyoacán,CDMX
20,EL RELOJ,4000,3074.071993,19.3179868,-99.14140814,Coyoacán,CDMX
21,EL ROSEDAL I,4000,3774.186098,19.34139993,-99.15123763,Coyoacán,CDMX
22,IMAN 580 (U HAB),4000,5112.97,19.31020916,-99.17172696,Coyoacán,CDMX
23,INFONAVIT CULHUACAN ZONA 3 (U HAB),4000,3273.75,19.32793937,-99.11871006,Coyoacán,CDMX
24,LA CONCEPCION (BARR),4000,5046.586329,19.34646601,-99.15785013,Coyoacán,CDMX
25,OLIMPICA,4000,3785.99553,19.30407342,-99.16999198,Coyoacán,CDMX
26,OXTOPULCO UNIVERSIDAD,4000,8298.550498,19.34118117,-99.18301045,Coyoacán,CDMX
27,PARQUE SAN ANDRES,4000,5661.488555,19.34594948,-99.14862971,Coyoacán,CDMX
28,SAN LUCAS (BARR),4000,3535.228769,19.34763515,-99.1532054,Coyoacán,CDMX
29,VILLA COYOACAN,4000,5180.327238,19.34696677,-99.1631132,Coyoacán,CDMX
30,VILLA QUIETUD (FRACC),4000,3274.019389,19.30301949,-99.10610879,Coyoacán,CDMX
31,VILLAS DEL PEDREGAL (U HAB),4000,5112.97,19.30463507,-99.17472903,Coyoacán,CDMX
32,SANTA CATARINA (BARR),4010,5570.656725,19.34821336,-99.17260928,Coyoacán,CDMX
33,CAFETALES II (RDCIAL),4039,3782.017175,19.30778544,-99.10637409,Coyoacán,CDMX
34,MONTE DE PIEDAD,4040,4778.374589,19.34373798,-99.17334348,Coyoacán,CDMX
35,ROMERO DE TERREROS (FRACC),4040,5336.036999,19.34163469,-99.17620483,Coyoacán,CDMX
36,LOS CIPRESES,4100,3949.843838,19.31958916,-99.12902007,Coyoacán,CDMX
37,PEDREGAL DEL MAUREL,4100,5112.97,19.30879177,-99.17475808,Coyoacán,CDMX
38,HERMOSILLO,4200,3543.373069,19.34689319,-99.12790507,Coyoacán,CDMX
39,SANTA MARTHA DEL SUR,4200,3354.52,19.34210156,-99.13060124,Coyoacán,CDMX
40,COUNTRY CLUB,4210,5536.712398,19.35132108,-99.14306305,Coyoacán,CDMX
41,ALIANZA POPULAR REVOLUCIONARIA PONIENTE (U HAB),4220,4844.432723,19.31439172,-99.12179324,Coyoacán,CDMX
42,CTM IX CULHUACAN 32-33 (U HAB),4220,3764.91,19.30946391,-99.10264491,Coyoacán,CDMX
43,EX HACIENDA COAPA,4220,5029.991862,19.30945259,-99.13539473,Coyoacán,CDMX
44,LOS GIRASOLES II,4220,4869.076502,19.30541019,-99.12362833,Coyoacán,CDMX
45,PRADO CHURUBUSCO,4230,3100.548598,19.35484197,-99.12638229,Coyoacán,CDMX
46,EX EJIDO DE CHURUBUSCO,4250,6954.33,19.34001459,-99.13029,Coyoacán,CDMX
47,PASEOS DE TAXQUEA I,4250,5587.918783,19.34850287,-99.12352009,Coyoacán,CDMX
48,PASEOS DE TAXQUEA II,4250,5444.474545,19.3432987,-99.1249931,Coyoacán,CDMX
49,AMPLIACION SAN FRANCISCO CULHUACAN (EJ),4260,2764.75953,19.33467244,-99.12570523,Coyoacán,CDMX
50,CANAL NACIONAL 260 (U HAB),4260,2666.28,19.32664545,-99.10713239,Coyoacán,CDMX
51,EX EJIDO SAN FRANCISCO CULHUACAN I,4260,2593.33,19.33169383,-99.12928225,Coyoacán,CDMX
52,EX EJIDO SAN FRANCISCO CULHUACAN II,4260,3008.181508,19.33106077,-99.12626325,Coyoacán,CDMX
53,EX EJIDO SAN FRANCISCO CULHUACAN III,4260,2864.681111,19.33067581,-99.12219984,Coyoacán,CDMX
54,LA MAGDALENA CULHUACAN (BARR),4260,4601.93244,19.3422082,-99.119333,Coyoacán,CDMX
55,LA VIRGEN 1170 (U HAB),4260,2666.28,19.32378239,-99.10424211,Coyoacán,CDMX
56,PRESIDENTES EJIDALES PRIMERA SECCION,4260,2593.33,19.32681869,-99.12799597,Coyoacán,CDMX
57,SAN FRANCISCO CULHUACAN (PBLO),4260,3583.975309,19.33528248,-99.11926237,Coyoacán,CDMX
58,AJUSCO HUAYAMILPAS,4300,1467.791616,19.32253483,-99.15157497,Coyoacán,CDMX
59,AJUSCO I,4300,1440.621972,19.32452379,-99.15570047,Coyoacán,CDMX
60,AJUSCO II,4300,1435.46,19.32017441,-99.16138304,Coyoacán,CDMX
61,AJUSCO III,4300,1451.655541,19.31458183,-99.16459789,Coyoacán,CDMX
62,AMPLIACION CANDELARIA,4300,1969.367369,19.32835287,-99.14945867,Coyoacán,CDMX
63,DE LA CANDELARIA (PBLO),4300,1528.864591,19.33143151,-99.14787196,Coyoacán,CDMX
64,EL ROSEDAL II,4300,2799.007605,19.33869206,-99.15011311,Coyoacán,CDMX
65,NUEVA DIAZ ORDAZ,4300,1492.17,19.32540574,-99.14734028,Coyoacán,CDMX
66,PEDREGAL DE SANTA URSULA IV,4300,1435.46,19.31350861,-99.15657709,Coyoacán,CDMX
67,PEDREGAL DE STO DOMINGO III,4300,1339.982471,19.33124301,-99.16429578,Coyoacán,CDMX
68,PEDREGAL DE STO DOMINGO VI,4300,1304.97,19.32364712,-99.16526348,Coyoacán,CDMX
69,SAN PABLO TEPETLAPA (PBLO),4300,3185.950539,19.32375798,-99.14217405,Coyoacán,CDMX
70,PEDREGAL DE STO DOMINGO IV,4309,1304.97,19.32873374,-99.16671298,Coyoacán,CDMX
71,COPILCO UNIVERSIDAD,4310,6069.389482,19.3362613,-99.18025302,Coyoacán,CDMX
72,ROMERO DE TERREROS,4310,4104.836797,19.34181004,-99.17023199,Coyoacán,CDMX
73,ROMERO DE TERREROS (COND),4310,9185.15,19.34448595,-99.18044128,Coyoacán,CDMX
74,CENTRO URBANO TLALPAN (U HAB),4317,4118.344629,19.33867109,-99.14203701,Coyoacán,CDMX
75,COPILCO EL BAJO,4318,6607.144727,19.33907721,-99.18588019,Coyoacán,CDMX
76,CUADRANTE DE SAN FRANCISCO,4320,3513.224221,19.34265685,-99.16366835,Coyoacán,CDMX
77,PEDREGAL DE SAN FRANCISCO (FRACC),4320,4708.87125,19.33875164,-99.1657591,Coyoacán,CDMX
78,ADOLFO RUIZ CORTINES II,4330,1304.97,19.31778764,-99.15489952,Coyoacán,CDMX
79,DEL NIO JESUS (BARR),4330,3128.122622,19.34043235,-99.1589628,Coyoacán,CDMX
80,LOS REYES (PBLO),4330,3018.179602,19.33593084,-99.15588151,Coyoacán,CDMX
81,PEDREGAL DE STO DOMINGO I,4336,1551.420984,19.33472414,-99.17057181,Coyoacán,CDMX
82,CIUDAD JARDIN,4347,2919.591062,19.3351061,-99.14419461,Coyoacán,CDMX
83,ALTILLO (COND ALTILLO ACASULCO),4350,9185.15,19.34175893,-99.18117854,Coyoacán,CDMX
84,ALTILLO (COND ALTILLO UNIVERSIDAD),4350,7858.128654,19.34077991,-99.180647,Coyoacán,CDMX
85,INTEGRACION LATINOAMERICANA (U HAB),4350,5723.438994,19.33814638,-99.17874115,Coyoacán,CDMX
86,COPILCO EL ALTO,4360,3454.277252,19.33140075,-99.17544915,Coyoacán,CDMX
87,LA CANTERA (U HAB),4360,3990.633211,19.33400081,-99.17457714,Coyoacán,CDMX
88,PEDREGAL DE STO DOMINGO IX,4360,1304.97,19.32940983,-99.17161947,Coyoacán,CDMX
89,PEDREGAL DE STO DOMINGO V,4360,1304.97,19.32558425,-99.16681603,Coyoacán,CDMX
90,PEDREGAL DE STO DOMINGO VIII,4360,1304.97,19.32318342,-99.17167773,Coyoacán,CDMX
91,VILLA PANAMERICANA 1ERA. SECCIN (U HAB),4360,5112.97,19.3049739,-99.17840978,Coyoacán,CDMX
92,VILLA PANAMERICANA 2DA. SECCIN (U HAB),4360,5112.97,19.30642085,-99.17628901,Coyoacán,CDMX
93,ADOLFO RUIZ CORTINES I,4369,1433.814164,19.32098279,-99.14739935,Coyoacán,CDMX
94,PEDREGAL DE STO DOMINGO II,4369,1536.389726,19.33359709,-99.16160603,Coyoacán,CDMX
95,PEDREGAL DE STO DOMINGO VII,4369,1340.926688,19.3188122,-99.16942657,Coyoacán,CDMX
96,ATLANTIDA,4370,4275.450333,19.34070896,-99.14680809,Coyoacán,CDMX
97,RANCHO EL ROSARIO,4380,2528.18,19.32729578,-99.14309319,Coyoacán,CDMX
98,EDUCACION,4400,2669.005141,19.33613067,-99.13335748,Coyoacán,CDMX
99,EL CENTINELA,4400,3079.773343,19.33571128,-99.13956863,Coyoacán,CDMX
100,PETROLERA TAXQUEA,4400,2858.206356,19.33843151,-99.13267885,Coyoacán,CDMX
101,CROC CULHUACAN SECC 6 (U HAB),4430,3273.75,19.32749611,-99.12158169,Coyoacán,CDMX
102,CTM IX CULHUACAN ZONA 29-30 (U HAB),4430,3715.290047,19.31301946,-99.1024081,Coyoacán,CDMX
103,INFONAVIT CULHUACAN ZONA 1 (U HAB),4430,3273.75,19.33201119,-99.11938363,Coyoacán,CDMX
104,CTM IXA CULHUACAN (U HAB),4440,3764.91,19.31115485,-99.10595234,Coyoacán,CDMX
105,CTM V CULHUACAN (U HAB),4440,3272.540503,19.331108,-99.1158062,Coyoacán,CDMX
106,CTM VII CULHUACAN (U HAB),4440,3272.7761,19.32531259,-99.1104125,Coyoacán,CDMX
107,CTM VIII CULHUACAN (U HAB),4440,3273.90225,19.31636606,-99.10391292,Coyoacán,CDMX
108,AVANTE,4460,2992.105131,19.32845464,-99.13475483,Coyoacán,CDMX
109,PILOTO CULHUACAN (U HAB),4460,3273.75,19.32236547,-99.1118362,Coyoacán,CDMX
110,CTM X CULHUACAN (U HAB),4480,4103.760838,19.30792835,-99.11043494,Coyoacán,CDMX
111,IMAN,4530,5112.97,19.30782753,-99.16653915,Coyoacán,CDMX
112,PEDREGAL DE LA ZORRA,4600,2753.52,19.30635445,-99.16006718,Coyoacán,CDMX
113,PEDREGAL DE SANTA URSULA I,4600,1556.659969,19.31452475,-99.14810128,Coyoacán,CDMX
114,PEDREGAL DE SANTA URSULA II,4600,1435.46,19.30838063,-99.15033709,Coyoacán,CDMX
115,PEDREGAL DE SANTA URSULA III,4600,1435.46,19.30939556,-99.15675611,Coyoacán,CDMX
116,XOTEPINGO,4610,3763.070411,19.32798748,-99.14063911,Coyoacán,CDMX
117,LAS TROJES COAPA (U HAB),4650,3169.78,19.30797273,-99.13908734,Coyoacán,CDMX
118,SANTA URSULA COYOACAN,4650,3966.915489,19.30373716,-99.17246613,Coyoacán,CDMX
119,JOYAS DEL PEDREGAL (FRACC),4660,4054.03,19.30555088,-99.15794805,Coyoacán,CDMX
120,CENTRO URBANO (U HAB),4700,5112.97,19.30687418,-99.17433364,Coyoacán,CDMX
121,VILLA PANAMERICANA 3ERA. SECCIN (U HAB),4700,5112.97,19.30768187,-99.17213921,Coyoacán,CDMX
122,VILLA PANAMERICANA 4TA. SECCIN (U HAB),4700,5112.97,19.3070104,-99.16940591,Coyoacán,CDMX
123,VILLA PANAMERICANA 5TA. SECCIN (U HAB),4700,5112.97,19.30899324,-99.16832673,Coyoacán,CDMX
124,VILLA PANAMERICANA 6TA. SECCIN (U HAB),4700,5112.97,19.31106294,-99.16975358,Coyoacán,CDMX
125,VILLA PANAMERICANA 7MA. SECCIN (U HAB),4700,5112.97,19.30392025,-99.16727237,Coyoacán,CDMX
126,VISTAS DEL MAUREL (U HAB),4700,3946.77,19.30528376,-99.17338819,Coyoacán,CDMX
127,CANTIL DEL PEDREGAL,4730,2953.56,19.30048793,-99.15736358,Coyoacán,CDMX
128,MEDIA LUNA,4737,2953.56,19.30196373,-99.16032783,Coyoacán,CDMX
129,EL CARACOL,4739,4268.102549,19.30425439,-99.16350913,Coyoacán,CDMX
130,LOS CEDROS (FRACC),4800,3123.51,19.31374525,-99.11298204,Coyoacán,CDMX
131,EMILIANO ZAPATA (U HAB),4810,1853.75,19.31751083,-99.11023891,Coyoacán,CDMX
132,JARDINES DE COYOACAN (FRACC),4810,4442.118908,19.31399057,-99.12694142,Coyoacán,CDMX
133,PRADOS DE COYOACAN,4810,2798.592074,19.318219,-99.13184475,Coyoacán,CDMX
134,EMILIANO ZAPATA,4815,3761.989901,19.3266326,-99.13793632,Coyoacán,CDMX
135,CARMEN SERDAN,4850,3273.75,19.31976097,-99.10834572,Coyoacán,CDMX
136,LAS CABAAS,4850,4373.05,19.31106677,-99.12743645,Coyoacán,CDMX
137,EL VERGEL DE COYOACAN ( INFONAVIT EL HUESO) (U HAB),4859,4323.3,19.30733156,-99.13653432,Coyoacán,CDMX
138,ESPARTACO,4870,2820.79201,19.3176632,-99.13530923,Coyoacán,CDMX
139,LOS ROBLES (FRACC),4870,2503.45,19.31509008,-99.13323944,Coyoacán,CDMX
140,LAS CAMPANAS,4890,3275.892927,19.3080377,-99.11993716,Coyoacán,CDMX
141,LOS OLIVOS (U HAB),4890,5970.23,19.31257104,-99.13426627,Coyoacán,CDMX
142,EL PARQUE DE COYOACAN (FRACC),4899,4421.715666,19.31101348,-99.1310007,Coyoacán,CDMX
143,CANAL NACIONAL (U HAB),4909,3764.91,19.30856854,-99.10076225,Coyoacán,CDMX
144,STUNAM CULHUACAN (U HAB),4909,3273.75,19.32100016,-99.10311434,Coyoacán,CDMX
145,CAFETALES I (RDCIAL),4918,3814.501342,19.31303889,-99.10964201,Coyoacán,CDMX
146,LOS GIRASOLES I,4920,4574.596168,19.30512227,-99.12176306,Coyoacán,CDMX
147,LOS GIRASOLES III,4920,4468.473388,19.3079899,-99.12586933,Coyoacán,CDMX
148,SANTA CECILIA,4930,3152.208285,19.30708776,-99.11402592,Coyoacán,CDMX
149,LOS SAUCES (FRACC),4940,3227.097143,19.30390683,-99.11648843,Coyoacán,CDMX
150,EL MIRADOR,4950,4344.85388,19.30222899,-99.10872701,Coyoacán,CDMX
151,HACIENDAS DE COYOACAN (FRACC),4970,3356.300318,19.30306847,-99.11220654,Coyoacán,CDMX
152,VIEJO EJIDO SANTA URSULA COAPA,4980,2113.51194,19.30475503,-99.14043567,Coyoacán,CDMX
0,LAS TINAJAS,5370,11771.848,19.35697515,-99.28070791,Cuajimalpa,CDMX
1,AMADO NERVO,5000,2183.41,19.36830231,-99.29520154,Cuajimalpa,CDMX
2,BOSQUES DE LAS LOMAS,5000,5798.997818,19.38684789,-99.25766081,Cuajimalpa,CDMX
3,EL CONTADERO,5000,2485.805564,19.34875418,-99.2960624,Cuajimalpa,CDMX
4,EL MOLINO,5000,2955.958295,19.36569044,-99.28247036,Cuajimalpa,CDMX
5,JARDINES DE LA PALMA (HUIZACHITO),5000,2622.922119,19.37036912,-99.28033965,Cuajimalpa,CDMX
6,LOMAS DEL CHAMIZAL,5000,3851.097397,19.38956049,-99.26258932,Cuajimalpa,CDMX
7,SAN JOSE DE LOS CEDROS II,5000,2225.319016,19.36672265,-99.28756828,Cuajimalpa,CDMX
8,TEPETONGO,5000,2715.99785,19.37152603,-99.29181542,Cuajimalpa,CDMX
9,ZENTLAPATL,5010,1149.962215,19.3540501,-99.30778398,Cuajimalpa,CDMX
10,LOMA DEL PADRE,5020,1116.347146,19.3463386,-99.31102172,Cuajimalpa,CDMX
11,SAN PEDRO CUAJIMALPA (PBLO),5030,2411.207932,19.35656245,-99.29741497,Cuajimalpa,CDMX
12,AHUATENCO,5039,1958.330881,19.36447758,-99.3011631,Cuajimalpa,CDMX
13,SAN PABLO CHIMALPA (PBLO),5050,1034.514,19.35302772,-99.31769488,Cuajimalpa,CDMX
14,EBANO (U HAB),5100,1999.032243,19.37427309,-99.28862162,Cuajimalpa,CDMX
15,LOMAS DE VISTA HERMOSA,5100,3158.367745,19.38034734,-99.27297753,Cuajimalpa,CDMX
16,PALO ALTO (GRANJAS),5118,4332.982923,19.38435145,-99.25377594,Cuajimalpa,CDMX
17,SAN JOSE DE LOS CEDROS I,5200,1781.35,19.36765438,-99.28990631,Cuajimalpa,CDMX
18,NAVIDAD (GRANJAS DE NAVIDAD),5219,2290.399354,19.37353757,-99.28507038,Cuajimalpa,CDMX
19,LA RETAMA,5230,2014.27,19.37507377,-99.2890657,Cuajimalpa,CDMX
20,JESUS DEL MONTE,5260,2091.918267,19.36680997,-99.29378246,Cuajimalpa,CDMX
21,MANZANASTITLA,5270,2125.980692,19.36618914,-99.29800326,Cuajimalpa,CDMX
22,ADOLFO LOPEZ MATEOS,5280,2183.41,19.36415936,-99.29526629,Cuajimalpa,CDMX
23,EL YAQUI,5300,7774.541541,19.36194078,-99.28331865,Cuajimalpa,CDMX
24,EL MOLINITO,5310,1620.71,19.36150486,-99.28707002,Cuajimalpa,CDMX
25,MEMETLA,5310,1620.71,19.36053251,-99.28599902,Cuajimalpa,CDMX
26,LOMAS DE MEMETLA,5330,1797.596596,19.35652935,-99.28804074,Cuajimalpa,CDMX
27,CORREDOR SANTA FE,5348,12276.75292,19.36053143,-99.27258652,Cuajimalpa,CDMX
28,EL TIANGUILLO,5400,890.9928195,19.32426332,-99.32299255,Cuajimalpa,CDMX
29,1o DE MAYO,5410,1479.518929,19.33814555,-99.32401561,Cuajimalpa,CDMX
30,LAS LAJAS,5410,1098.5,19.3175804,-99.3335047,Cuajimalpa,CDMX
31,SAN LORENZO ACOPILCO (PBLO),5410,1242.593383,19.33022864,-99.32614126,Cuajimalpa,CDMX
32,TEXCALCO,5410,196.31,19.32866943,-99.33109569,Cuajimalpa,CDMX
33,PORTAL DEL SOL,5500,8366.111319,19.34938895,-99.26814902,Cuajimalpa,CDMX
34,LA VENTA,5520,626.7161111,19.33383148,-99.31010168,Cuajimalpa,CDMX
35,ABDIAS GARCIA SOTO,5530,1620.71,19.35222655,-99.29234157,Cuajimalpa,CDMX
36,SAN MATEO TLALTENANGO (PBLO),5600,2328.250418,19.34374559,-99.27545871,Cuajimalpa,CDMX
37,CRUZ BLANCA,5700,1034.499901,19.32105124,-99.32737122,Cuajimalpa,CDMX
38,LA PILA,5710,1002.972759,19.31826894,-99.33411936,Cuajimalpa,CDMX
39,XALPA,5730,793.0218939,19.31455257,-99.33110437,Cuajimalpa,CDMX
40,COLA DE PATO,5750,790.69,19.30590659,-99.33956453,Cuajimalpa,CDMX
41,AGUA BENDITA,5780,1078.542036,19.35623283,-99.30836298,Cuajimalpa,CDMX
0,ROMA NORTE III,6500,7024.041469,19.41481706,-99.16028556,Cuauhtémoc,CDMX
1,SAN RAFAEL II,6470,5431.791604,19.43840397,-99.16450353,Cuauhtémoc,CDMX
2,GUERRERO III,6300,4347.390421,19.44266827,-99.14598608,Cuauhtémoc,CDMX
3,CENTRO III,6020,5409.102184,19.43726674,-99.12801597,Cuauhtémoc,CDMX
4,DOCTORES II,6720,4774.098325,19.41983759,-99.15087846,Cuauhtémoc,CDMX
5,TABACALERA,6030,8054.472579,19.43604033,-99.15364071,Cuauhtémoc,CDMX
6,ATLAMPA,6450,4047.926597,19.4580646,-99.15545556,Cuauhtémoc,CDMX
7,CENTRO II,6010,5370.512052,19.4397953,-99.12828031,Cuauhtémoc,CDMX
8,CENTRO I,6000,5255.666457,19.44174293,-99.13152682,Cuauhtémoc,CDMX
9,CENTRO IV,6000,7308.020553,19.43341577,-99.13713763,Cuauhtémoc,CDMX
10,CENTRO V,6000,8564.346974,19.42751561,-99.13711908,Cuauhtémoc,CDMX
11,CENTRO VII,6000,6309.28277,19.42988122,-99.12809134,Cuauhtémoc,CDMX
12,MORELOS I,6000,3866.667324,19.44984279,-99.12983248,Cuauhtémoc,CDMX
13,OBRERA I,6000,4239.503041,19.41932771,-99.13959958,Cuauhtémoc,CDMX
14,OBRERA IV,6000,3956.408185,19.41039742,-99.13805405,Cuauhtémoc,CDMX
15,GUERRERO IV,6010,4997.867755,19.4410683,-99.14187009,Cuauhtémoc,CDMX
16,MORELOS II,6020,3818.45,19.44722814,-99.12656272,Cuauhtémoc,CDMX
17,SANTA MARIA LA RIBERA II,6030,4678.025079,19.44956766,-99.15832461,Cuauhtémoc,CDMX
18,SANTA MARIA INSURGENTES,6040,3915.68,19.46213004,-99.14753601,Cuauhtémoc,CDMX
19,CENTRO VI,6060,6738.990224,19.42483596,-99.13482034,Cuauhtémoc,CDMX
20,CENTRO VIII,6080,7461.260112,19.43066694,-99.14657003,Cuauhtémoc,CDMX
21,PAULINO NAVARRO,6080,3888.605939,19.41186803,-99.1304246,Cuauhtémoc,CDMX
22,TRANSITO,6080,4923.840067,19.4194637,-99.13151476,Cuauhtémoc,CDMX
23,CONDESA,6140,4945.298461,19.4150294,-99.17655697,Cuauhtémoc,CDMX
24,NONOALCO-TLATELOLCO (U HAB) II,6140,5084.39,19.45324762,-99.14187227,Cuauhtémoc,CDMX
25,HIPODROMO CONDESA,6170,4863.53384,19.40986558,-99.17883843,Cuauhtémoc,CDMX
26,HIPODROMO I,6170,6681.815132,19.41226787,-99.16937918,Cuauhtémoc,CDMX
27,HIPODROMO II,6170,5397.929627,19.40681455,-99.1726369,Cuauhtémoc,CDMX
28,MORELOS III,6200,4217.695773,19.44535479,-99.13333801,Cuauhtémoc,CDMX
29,PERALVILLO I,6200,3915.68,19.4626292,-99.13699515,Cuauhtémoc,CDMX
30,PERALVILLO II,6200,4031.864293,19.46097882,-99.13103984,Cuauhtémoc,CDMX
31,EX HIPODROMO DE PERALVILLO,6220,3517.642578,19.45691002,-99.13462862,Cuauhtémoc,CDMX
32,VALLE GOMEZ,6240,3585.540372,19.45879687,-99.12495966,Cuauhtémoc,CDMX
33,FELIPE PESCADOR,6280,3340.272025,19.45511388,-99.12491436,Cuauhtémoc,CDMX
34,GUERRERO I,6300,4162.169243,19.44878428,-99.14377672,Cuauhtémoc,CDMX
35,GUERRERO II,6300,5569.632524,19.44701367,-99.13989303,Cuauhtémoc,CDMX
36,NONOALCO-TLATELOLCO (U HAB) I,6300,5084.39,19.45493884,-99.14755844,Cuauhtémoc,CDMX
37,BUENAVISTA I,6350,5493.173782,19.44854832,-99.14818801,Cuauhtémoc,CDMX
38,BUENAVISTA II,6350,5711.013329,19.44153647,-99.1502046,Cuauhtémoc,CDMX
39,SAN RAFAEL I,6400,5941.015575,19.43717628,-99.15948677,Cuauhtémoc,CDMX
40,SANTA MARIA LA RIBERA I,6400,4443.054346,19.45292831,-99.15826925,Cuauhtémoc,CDMX
41,SANTA MARIA LA RIBERA IV,6400,4478.005523,19.44456411,-99.15923829,Cuauhtémoc,CDMX
42,SANTA MARIA (U HAB),6430,3915.68,19.45628227,-99.15708062,Cuauhtémoc,CDMX
43,CUAUHTEMOC,6500,10937.15908,19.42979083,-99.16902575,Cuauhtémoc,CDMX
44,JUAREZ,6600,11217.94025,19.42822869,-99.16052083,Cuauhtémoc,CDMX
45,DOCTORES IV,6700,4878.578972,19.41309135,-99.15056719,Cuauhtémoc,CDMX
46,ROMA NORTE I,6700,7634.569445,19.41968602,-99.16948313,Cuauhtémoc,CDMX
47,ROMA NORTE II,6700,7156.073693,19.42197467,-99.15815904,Cuauhtémoc,CDMX
48,DOCTORES I,6720,5140.7927,19.42296373,-99.14712242,Cuauhtémoc,CDMX
49,DOCTORES III,6720,4649.759283,19.41640848,-99.1461753,Cuauhtémoc,CDMX
50,DOCTORES V,6720,5044.748177,19.41073231,-99.14638922,Cuauhtémoc,CDMX
51,OBRERA II,6720,4161.630271,19.41517318,-99.13993207,Cuauhtémoc,CDMX
52,ROMA SUR I,6760,4903.855913,19.40839796,-99.1629922,Cuauhtémoc,CDMX
53,ROMA SUR II,6760,5011.361579,19.40408133,-99.1634206,Cuauhtémoc,CDMX
54,OBRERA III,6800,4077.441067,19.41070175,-99.14179287,Cuauhtémoc,CDMX
55,ASTURIAS,6820,3911.423753,19.40468354,-99.13026098,Cuauhtémoc,CDMX
56,ESPERANZA,6840,4113.345893,19.42086551,-99.12861177,Cuauhtémoc,CDMX
57,VISTA ALEGRE,6850,4113.155331,19.41057398,-99.13308468,Cuauhtémoc,CDMX
58,ALGARIN,6880,4923.35077,19.40556734,-99.14046915,Cuauhtémoc,CDMX
59,ASTURIAS (AMPL),6890,4003.204883,19.40704621,-99.13107209,Cuauhtémoc,CDMX
60,NONOALCO-TLATELOLCO (U HAB) III,6900,5321.808357,19.45218747,-99.13467429,Cuauhtémoc,CDMX
61,SAN SIMON TOLNAHUAC,6920,3519.45,19.45874001,-99.14276392,Cuauhtémoc,CDMX
0,15 DE AGOSTO,7880,2425.71,19.48487485,-99.10704528,Gustavo A. Madero,CDMX
1,25 DE JULIO,7570,1833.008176,19.49565238,-99.08147544,Gustavo A. Madero,CDMX
2,51 LEGISLATURA,7460,2145.412609,19.48352257,-99.09307167,Gustavo A. Madero,CDMX
3,6 DE JUNIO,7788,781.7716822,19.55060371,-99.12587046,Gustavo A. Madero,CDMX
4,7 DE NOVIEMBRE,7840,2126.505874,19.45957128,-99.11975349,Gustavo A. Madero,CDMX
5,ACUEDUCTO DE GUADALUPE (RDCIAL),7270,3093.31,19.5235893,-99.14979428,Gustavo A. Madero,CDMX
6,ACUEDUCTO DE GUADALUPE (U HAB),7279,3615.738464,19.52697053,-99.1505314,Gustavo A. Madero,CDMX
7,AHUEHUETES,7530,711.6815449,19.54601626,-99.13122056,Gustavo A. Madero,CDMX
8,AIDEE SOLS CRDENAS-MATAS ROMERO (U HAB),7280,1191.33,19.53356919,-99.14599881,Gustavo A. Madero,CDMX
9,ARAGON INGUARAN,7880,1981.83,19.47073691,-99.10740727,Gustavo A. Madero,CDMX
10,ARAGON LA VILLA (ARAGON),7940,2148.535759,19.47961869,-99.11503691,Gustavo A. Madero,CDMX
11,ARBOLEDAS DE CUAUTEPEC,7240,525.625509,19.56117933,-99.1250456,Gustavo A. Madero,CDMX
12,ARBOLEDAS DE CUAUTEPEC (AMPL),7750,539.7326437,19.56537224,-99.12570825,Gustavo A. Madero,CDMX
13,ARROYO GUADALUPE (U HAB),7720,2747.95,19.51084074,-99.13671126,Gustavo A. Madero,CDMX
14,BELISARIO DOMINGUEZ,7890,1981.83,19.46267915,-99.11085419,Gustavo A. Madero,CDMX
15,BENITO JUAREZ,7290,944.33,19.53249945,-99.13917465,Gustavo A. Madero,CDMX
16,BENITO JUAREZ (AMPL),7259,883.2521607,19.53496056,-99.13806116,Gustavo A. Madero,CDMX
17,BONDOJITO,7860,1981.83,19.46676264,-99.11089516,Gustavo A. Madero,CDMX
18,C T M ARAGON (U),7990,2233.44,19.45291587,-99.05617555,Gustavo A. Madero,CDMX
19,C T M ARAGON AMPLIACION (U),7999,2233.44,19.45539975,-99.05333891,Gustavo A. Madero,CDMX
20,CAMINO A SAN JUAN DE ARAGON (PBLO),7969,2252.96,19.46827618,-99.08929972,Gustavo A. Madero,CDMX
21,CAMPESTRE ARAGON I,7930,2041.86,19.48792994,-99.07880856,Gustavo A. Madero,CDMX
22,CAMPESTRE ARAGON II,7960,2041.86,19.48310728,-99.08112239,Gustavo A. Madero,CDMX
23,CAPULTITLAN,7770,2611.56,19.47816145,-99.13320299,Gustavo A. Madero,CDMX
24,CASAS ALEMAN (AMPL) I,7960,1993.89,19.47729809,-99.08156877,Gustavo A. Madero,CDMX
25,CASAS ALEMAN (AMPL) II,7969,1993.89,19.47841696,-99.08680023,Gustavo A. Madero,CDMX
26,CASTILLO CHICO,7258,999.1610316,19.54093434,-99.13610288,Gustavo A. Madero,CDMX
27,CASTILLO GRANDE,7290,963.7799762,19.53806776,-99.1383248,Gustavo A. Madero,CDMX
28,CASTILLO GRANDE (AMPL),7258,734.45,19.53675795,-99.13685638,Gustavo A. Madero,CDMX
29,CERRO PRIETO,7960,1981.83,19.45271672,-99.09828707,Gustavo A. Madero,CDMX
30,CHALMA DE GUADALUPE I,7210,985.2473129,19.55538803,-99.15091227,Gustavo A. Madero,CDMX
31,CHALMA DE GUADALUPE II,7230,985.96,19.55000993,-99.15431081,Gustavo A. Madero,CDMX
32,CHURUBUSCO TEPEYAC,7730,2959.373514,19.48727146,-99.13781711,Gustavo A. Madero,CDMX
33,COCOYOTES,7190,585.93,19.54826579,-99.13079116,Gustavo A. Madero,CDMX
34,COCOYOTES (AMPL),7188,672.9,19.55079956,-99.12792479,Gustavo A. Madero,CDMX
35,COMPOSITORES MEXICANOS,7230,635.32,19.56561995,-99.14042392,Gustavo A. Madero,CDMX
36,CONSTITUCION DE LA REPUBLICA,7469,2346.712418,19.48323021,-99.1002972,Gustavo A. Madero,CDMX
37,COOPERATIVA LUIS ENRIQUE RODRGUEZ OROZCO (U HAB),7280,1191.33,19.53055009,-99.14226247,Gustavo A. Madero,CDMX
38,CTM ATZACOALCO (U HAB),7420,1688.044303,19.50764747,-99.09970984,Gustavo A. Madero,CDMX
39,CTM EL RISCO (U HAB),7090,1715.62,19.50940326,-99.09598612,Gustavo A. Madero,CDMX
40,CUAUTEPEC DE MADERO,7200,938.48,19.54562703,-99.13903566,Gustavo A. Madero,CDMX
41,CUAUTEPEC EL ALTO (PBLO),7700,914.8437966,19.55703149,-99.13394294,Gustavo A. Madero,CDMX
42,CUCHILLA DEL TESORO,7900,2233.44,19.44812714,-99.05800764,Gustavo A. Madero,CDMX
43,CUCHILLA LA JOYA,7890,1981.83,19.45815035,-99.11104701,Gustavo A. Madero,CDMX
44,DEFENSORES DE LA REPUBLICA,7880,2760.982271,19.47524248,-99.14304472,Gustavo A. Madero,CDMX
45,DEL BOSQUE,7230,938.48,19.5447288,-99.14297822,Gustavo A. Madero,CDMX
46,DEL OBRERO,7440,1948.5,19.50021407,-99.09140176,Gustavo A. Madero,CDMX
47,DM NACIONAL,7495,2243.22,19.47560336,-99.09584475,Gustavo A. Madero,CDMX
48,EDUARDO MOLINA I (U HAB),7458,2530.28,19.48314849,-99.09104532,Gustavo A. Madero,CDMX
49,EDUARDO MOLINA II (U HAB),7469,2530.28,19.4831208,-99.09213066,Gustavo A. Madero,CDMX
50,EJIDOS SAN JUAN DE ARAGON 1A SECCION (U HAB),7950,2252.96,19.46925544,-99.09210921,Gustavo A. Madero,CDMX
51,EJIDOS SAN JUAN DE ARAGON 2A SECCION (U HAB),7969,2177.42,19.46563988,-99.07704536,Gustavo A. Madero,CDMX
52,EL ARBOLILLO,7530,944.33,19.53632457,-99.14113351,Gustavo A. Madero,CDMX
53,EL ARBOLILLO 1 (U HAB),7240,1985.67,19.5300045,-99.14788151,Gustavo A. Madero,CDMX
54,EL ARBOLILLO 2 (U HAB),7280,1191.33,19.53410348,-99.14455693,Gustavo A. Madero,CDMX
55,EL ARBOLILLO 3 (U HAB),7280,1191.33,19.53789915,-99.14489577,Gustavo A. Madero,CDMX
56,EL CARMEN,7199,1005.168959,19.54312551,-99.13306381,Gustavo A. Madero,CDMX
57,EL COYOL (U HAB),7420,2518.686,19.48808983,-99.09008188,Gustavo A. Madero,CDMX
58,EL OLIVO,7950,1852.598503,19.47359728,-99.08664842,Gustavo A. Madero,CDMX
59,EMILIANO ZAPATA,7889,1981.83,19.46141462,-99.11778041,Gustavo A. Madero,CDMX
60,EMILIANO ZAPATA (AMPL),7860,1981.83,19.46398241,-99.10572586,Gustavo A. Madero,CDMX
61,ESTANZUELA,7360,2156.28987,19.49043178,-99.1097769,Gustavo A. Madero,CDMX
62,ESTRELLA,7810,2738.244745,19.47514581,-99.11673119,Gustavo A. Madero,CDMX
63,EX-ESCUELA DE TIRO,7960,1981.83,19.45323929,-99.09969012,Gustavo A. Madero,CDMX
64,FAJA DE ORO,7860,1981.83,19.46652134,-99.10524958,Gustavo A. Madero,CDMX
65,FERNANDO CASAS ALEMAN,7960,1981.83,19.45249999,-99.0959227,Gustavo A. Madero,CDMX
66,FERROCARRILERA INSURGENTES,7495,2530.28,19.48203461,-99.09236489,Gustavo A. Madero,CDMX
67,FOVISSSTE CUCHILLA (U HAB),7950,2252.96,19.47186652,-99.08755618,Gustavo A. Madero,CDMX
68,FOVISSSTE RIO DE GUADALUPE (U HAB),7950,2252.96,19.4726636,-99.08841237,Gustavo A. Madero,CDMX
69,FOVISSTE ARAGON (U HAB),7990,2759.89,19.45358754,-99.06142255,Gustavo A. Madero,CDMX
70,GABRIEL HERNANDEZ,7080,1433.711695,19.49829849,-99.09984059,Gustavo A. Madero,CDMX
71,GABRIEL HERNANDEZ (AMPL) I,7090,1438.198442,19.50324635,-99.09793418,Gustavo A. Madero,CDMX
72,GABRIEL HERNANDEZ (AMPL) II,7089,1435.25,19.50602632,-99.10378278,Gustavo A. Madero,CDMX
73,GENERAL FELIPE BERRIOZABAL,7220,585.93,19.55509025,-99.12824178,Gustavo A. Madero,CDMX
74,GERTRUDIS SANCHEZ 1A SECCION,7830,1981.83,19.46938421,-99.10435571,Gustavo A. Madero,CDMX
75,GERTRUDIS SANCHEZ 2A SECCION,7839,1981.83,19.46653563,-99.09982967,Gustavo A. Madero,CDMX
76,GERTRUDIS SANCHEZ 3A SECCION,7880,1981.83,19.46149318,-99.1017218,Gustavo A. Madero,CDMX
77,GRACIANO SANCHEZ,7210,985.96,19.55683048,-99.14727889,Gustavo A. Madero,CDMX
78,GRANJAS MODERNAS-SAN JUAN DE ARAGON (AMPL),7950,2243.22,19.47857588,-99.1050828,Gustavo A. Madero,CDMX
79,GUADALUPE INSURGENTES,7870,3159.191272,19.47344849,-99.13255061,Gustavo A. Madero,CDMX
80,GUADALUPE PROLETARIA,7760,2044.791965,19.52161808,-99.15554428,Gustavo A. Madero,CDMX
81,GUADALUPE PROLETARIA (AMPL),7680,1916.098023,19.52159041,-99.15212124,Gustavo A. Madero,CDMX
82,GUADALUPE TEPEYAC,7890,2950.008809,19.46746128,-99.12069072,Gustavo A. Madero,CDMX
83,GUADALUPE VICTORIA,7840,938.48,19.53929553,-99.14001731,Gustavo A. Madero,CDMX
84,GUADALUPE VICTORIA II,7870,2790.364011,19.47140818,-99.14071735,Gustavo A. Madero,CDMX
85,HEROE DE NACOZARI,7870,2653.709467,19.47098618,-99.14342357,Gustavo A. Madero,CDMX
86,HEROES DE CHAPULTEPEC,7939,2252.96,19.47387306,-99.09075426,Gustavo A. Madero,CDMX
87,HORNOS DE ARAGON (U HAB),7950,2252.96,19.47110489,-99.08049139,Gustavo A. Madero,CDMX
88,INDECO (U HAB),7990,2252.96,19.47331812,-99.08986648,Gustavo A. Madero,CDMX
89,INDUSTRIAL I,7880,3513.077005,19.47397784,-99.12415656,Gustavo A. Madero,CDMX
90,INDUSTRIAL II,7870,3165.47363,19.47493839,-99.12834942,Gustavo A. Madero,CDMX
91,INFONAVIT (U HAB),7330,2716.99,19.51602238,-99.1414472,Gustavo A. Madero,CDMX
92,INFONAVIT CAMINO SAN JUAN DE ARAGON (U HAB),7950,2252.96,19.4725547,-99.08262122,Gustavo A. Madero,CDMX
93,INFONAVIT LORETO FABELA (U HAB),7950,2252.96,19.47154907,-99.08030062,Gustavo A. Madero,CDMX
94,JAIME S EMILIANO G,7210,938.48,19.54778136,-99.13475855,Gustavo A. Madero,CDMX
95,JORGE NEGRETE,7880,1790.283467,19.52623242,-99.14353058,Gustavo A. Madero,CDMX
96,JOSE MARIA MORELOS Y PAVON I (U HAB),7459,2530.28,19.48391916,-99.0944814,Gustavo A. Madero,CDMX
97,JOSE MARIA MORELOS Y PAVON II (U HAB),7970,2425.71,19.47964387,-99.09168566,Gustavo A. Madero,CDMX
98,JOYAS VALLEJO (U HAB),7620,1918.44,19.52943649,-99.17270847,Gustavo A. Madero,CDMX
99,JUAN DE DIOS BATIZ (U HAB),7360,3136.06,19.50372083,-99.12972857,Gustavo A. Madero,CDMX
100,JUAN GONZALEZ ROMERO,7550,1604.13,19.50531561,-99.08967281,Gustavo A. Madero,CDMX
101,JUVENTINO ROSAS,7230,635.32,19.56275693,-99.13482138,Gustavo A. Madero,CDMX
102,LA CANDELARIA TICOMAN (BARR),7360,1208.901811,19.52115516,-99.1359427,Gustavo A. Madero,CDMX
103,LA CASILDA,7180,585.93,19.55624617,-99.12551201,Gustavo A. Madero,CDMX
104,LA CRUZ (BARR),7730,1357.319794,19.49262454,-99.10200338,Gustavo A. Madero,CDMX
105,LA ESMERALDA (U HAB),7580,2530.28,19.48930997,-99.08520953,Gustavo A. Madero,CDMX
106,LA ESMERALDA I,7549,2530.28,19.48658821,-99.08713081,Gustavo A. Madero,CDMX
107,LA ESMERALDA II,7540,2530.28,19.48590192,-99.08605029,Gustavo A. Madero,CDMX
108,LA ESMERALDA III,7540,2530.28,19.48481732,-99.08457531,Gustavo A. Madero,CDMX
109,LA FORESTAL,7440,657.1487065,19.56306359,-99.13108878,Gustavo A. Madero,CDMX
110,LA FORESTAL 1,7140,635.32,19.56760546,-99.12799916,Gustavo A. Madero,CDMX
111,LA FORESTAL 2,7140,636.5138294,19.56719582,-99.12696484,Gustavo A. Madero,CDMX
112,LA FORESTAL 3,7149,626.5444133,19.56997804,-99.12906281,Gustavo A. Madero,CDMX
113,LA JOYA,7890,1981.83,19.45683908,-99.10898734,Gustavo A. Madero,CDMX
114,LA JOYITA,7890,1981.83,19.46551396,-99.11680369,Gustavo A. Madero,CDMX
115,LA LAGUNA TICOMAN (BARR),7360,2467.399795,19.51403556,-99.1304601,Gustavo A. Madero,CDMX
116,LA MALINCHE,7899,2463.12,19.45287262,-99.10492461,Gustavo A. Madero,CDMX
117,LA PASTORA,7310,945.7699182,19.52732622,-99.13805796,Gustavo A. Madero,CDMX
118,LA PATERA-CONDOMODULOS (U HAB),7720,4232.978574,19.50469602,-99.15497923,Gustavo A. Madero,CDMX
119,LA PRADERA,7560,2048.54,19.47541143,-99.06671436,Gustavo A. Madero,CDMX
120,LA PRADERA I (U HAB),7500,1944.66475,19.47415473,-99.06277686,Gustavo A. Madero,CDMX
121,LA PRADERA II (U HAB),7570,2048.54,19.47186364,-99.06410058,Gustavo A. Madero,CDMX
122,LA PURISIMA TICOMAN (BARR),7708,2405.112638,19.5145849,-99.13821116,Gustavo A. Madero,CDMX
123,LINDAVISTA I,7730,4111.150493,19.49066591,-99.13254702,Gustavo A. Madero,CDMX
124,LINDAVISTA II,7300,3837.78443,19.49744764,-99.12932302,Gustavo A. Madero,CDMX
125,LINDAVISTA VALLEJO (U HAB),7790,4355.576026,19.4964389,-99.15016824,Gustavo A. Madero,CDMX
126,LOMA DE LA PALMA,7160,635.5297129,19.55471335,-99.14065321,Gustavo A. Madero,CDMX
127,LOMAS DE CUAUTEPEC,7270,647.6911059,19.56899814,-99.13534575,Gustavo A. Madero,CDMX
128,LOS OLIVOS (U HAB),7950,2252.96,19.47302319,-99.08167239,Gustavo A. Madero,CDMX
129,LUIS DONALDO COLOSIO,7164,845.1493137,19.56137735,-99.1451681,Gustavo A. Madero,CDMX
130,MAGDALENA DE LAS SALINAS,7780,3005.065162,19.48217705,-99.14051472,Gustavo A. Madero,CDMX
131,MALACATES,7201,836.7047838,19.57379866,-99.13299919,Gustavo A. Madero,CDMX
132,MALACATES (AMPL),7170,581.8569497,19.57685433,-99.13079616,Gustavo A. Madero,CDMX
133,MALVINAS MEXICANAS,7920,2048.54,19.47019681,-99.06362259,Gustavo A. Madero,CDMX
134,MARTIN CARRERA I,7300,2425.71,19.48694474,-99.10817158,Gustavo A. Madero,CDMX
135,MARTIN CARRERA II,7090,2371.049458,19.4896674,-99.10647831,Gustavo A. Madero,CDMX
136,MARTIRES DE RIO BLANCO,7890,1981.83,19.45996458,-99.11370562,Gustavo A. Madero,CDMX
137,MARTIRES DE RIO BLANCO (AMPL),7880,1981.83,19.46194113,-99.10638179,Gustavo A. Madero,CDMX
138,MAXIMINO AVILA CAMACHO,7770,2781.811835,19.47825609,-99.13734306,Gustavo A. Madero,CDMX
139,NARCISO BASSOLS (U HAB),7990,2233.44,19.45641109,-99.05676982,Gustavo A. Madero,CDMX
140,NUEVA ATZACOALCO I,7820,1803.02,19.50332196,-99.08279211,Gustavo A. Madero,CDMX
141,NUEVA ATZACOALCO II,7920,1803.02,19.49936883,-99.08581731,Gustavo A. Madero,CDMX
142,NUEVA ATZACOALCO III,7440,1803.02,19.49344919,-99.08878702,Gustavo A. Madero,CDMX
143,NUEVA INDUSTRIAL VALLEJO (FRACC),7729,4481.330051,19.50813387,-99.15310621,Gustavo A. Madero,CDMX
144,NUEVA TENOCHTITLAN,7980,1982.188636,19.45656977,-99.1038436,Gustavo A. Madero,CDMX
145,NUEVA VALLEJO,7870,2860.343923,19.48861358,-99.14878633,Gustavo A. Madero,CDMX
146,PALMATITLA,7210,716.6828314,19.55181965,-99.13227939,Gustavo A. Madero,CDMX
147,PANAMERICANA,7770,2787.269155,19.47952755,-99.14344433,Gustavo A. Madero,CDMX
148,PANAMERICANA (AMPL),7780,2903.04014,19.47718949,-99.14133082,Gustavo A. Madero,CDMX
149,PARQUE METROPOLITANO,7210,660.7663636,19.56808445,-99.1314605,Gustavo A. Madero,CDMX
150,PEMEX LINDAVISTA (U HAB),7320,2747.95,19.50640145,-99.13399049,Gustavo A. Madero,CDMX
151,PLANETARIO LINDAVISTA,7739,3318.85,19.49559759,-99.14156683,Gustavo A. Madero,CDMX
152,PLAZA ORIENTE (RDCIAL),7456,2530.28,19.48490154,-99.09232359,Gustavo A. Madero,CDMX
153,PRADOS DE CUAUTEPEC,7164,635.32,19.56132356,-99.14196754,Gustavo A. Madero,CDMX
154,PROGRESO NACIONAL (AMPL),7650,2190.882659,19.51615176,-99.16007963,Gustavo A. Madero,CDMX
155,PROGRESO NACIONAL I,7670,2190.49,19.52056491,-99.16130346,Gustavo A. Madero,CDMX
156,PROGRESO NACIONAL II,7670,2220.876866,19.51811547,-99.15370891,Gustavo A. Madero,CDMX
157,PROVIDENCIA (AMPL),7560,2048.54,19.47857024,-99.07004975,Gustavo A. Madero,CDMX
158,PROVIDENCIA I,7560,2048.54,19.48170422,-99.07278683,Gustavo A. Madero,CDMX
159,PROVIDENCIA II,7560,2048.004224,19.48413449,-99.06751318,Gustavo A. Madero,CDMX
160,PROVIDENCIA III,7950,2048.54,19.48679328,-99.07202605,Gustavo A. Madero,CDMX
161,QUETZALCOATL 3,7160,635.32,19.55913676,-99.14084819,Gustavo A. Madero,CDMX
162,RESIDENCIAL LA ESCALERA (FRACC),7600,2747.95,19.50857606,-99.13686448,Gustavo A. Madero,CDMX
163,RESIDENCIAL ZACATENCO,7630,2443.332495,19.50340237,-99.12451706,Gustavo A. Madero,CDMX
164,REVOLUCION IMSS (U HAB),7760,5210.05,19.48546232,-99.13332027,Gustavo A. Madero,CDMX
165,ROSAS DEL TEPEYAC,7100,2273.337642,19.49004633,-99.1157869,Gustavo A. Madero,CDMX
166,SALVADOR DIAZ MIRON,7440,2425.71,19.48767707,-99.09775748,Gustavo A. Madero,CDMX
167,SAN ANTONIO,7160,635.32,19.55998007,-99.1375459,Gustavo A. Madero,CDMX
168,SAN BARTOLO ATEPEHUACAN (PBLO),7740,3002.851418,19.49326845,-99.14313612,Gustavo A. Madero,CDMX
169,SAN FELIPE DE JESUS I,7570,1980.55,19.49727852,-99.06838599,Gustavo A. Madero,CDMX
170,SAN FELIPE DE JESUS II,7550,1980.55,19.49169381,-99.07779072,Gustavo A. Madero,CDMX
171,SAN FELIPE DE JESUS III,7510,1980.55,19.49886211,-99.07648433,Gustavo A. Madero,CDMX
172,SAN FELIPE DE JESUS IV,7570,1980.55,19.49398439,-99.07143396,Gustavo A. Madero,CDMX
173,SAN JOSE DE LA ESCALERA,7640,1918.317284,19.52560284,-99.16431979,Gustavo A. Madero,CDMX
174,SAN JOSE TICOMAN,7550,3082.914754,19.50481225,-99.13225222,Gustavo A. Madero,CDMX
175,SAN JUAN DE ARAGON (PBLO),7950,2252.96,19.47005019,-99.08325107,Gustavo A. Madero,CDMX
176,SAN JUAN DE ARAGON 1A SECCION (U HAB) I,7979,2652.55,19.45564942,-99.0924271,Gustavo A. Madero,CDMX
177,SAN JUAN DE ARAGON 1A SECCION (U HAB) II,7970,2652.55,19.46214892,-99.0913633,Gustavo A. Madero,CDMX
178,SAN JUAN DE ARAGON 2A SECCION (U HAB) I,7970,2652.55,19.45096531,-99.08674702,Gustavo A. Madero,CDMX
179,SAN JUAN DE ARAGON 2A SECCION (U HAB) II,7969,2652.55,19.45669543,-99.08483365,Gustavo A. Madero,CDMX
180,SAN JUAN DE ARAGON 3A SECCION (U HAB) I,7990,2677.35,19.45206086,-99.07316109,Gustavo A. Madero,CDMX
181,SAN JUAN DE ARAGON 3A SECCION (U HAB) II,7969,2677.35,19.45164733,-99.06915914,Gustavo A. Madero,CDMX
182,SAN JUAN DE ARAGON 4A  Y 5A SECCION (U HAB) I,7990,2581.65,19.45104186,-99.06369955,Gustavo A. Madero,CDMX
183,SAN JUAN DE ARAGON 4A  Y 5A SECCION (U HAB) II,7990,2581.75745,19.45715831,-99.06487011,Gustavo A. Madero,CDMX
184,SAN JUAN DE ARAGON 6A SECCION (U HAB) I,7979,2598.54,19.4693928,-99.06938285,Gustavo A. Madero,CDMX
185,SAN JUAN DE ARAGON 6A SECCION (U HAB) II,7979,2598.54,19.46629079,-99.06397923,Gustavo A. Madero,CDMX
186,SAN JUAN DE ARAGON 7 SECC (U HAB) I,7970,2598.54,19.4699068,-99.07811979,Gustavo A. Madero,CDMX
187,SAN JUAN DE ARAGON 7 SECC (U HAB) II,7920,2598.54,19.46936499,-99.0733484,Gustavo A. Madero,CDMX
188,SAN JUAN III (U HAB),7469,2425.71,19.47986645,-99.09398223,Gustavo A. Madero,CDMX
189,SAN JUAN Y GUADALUPE TICOMAN (BARR),7350,1076.238306,19.52100077,-99.1291604,Gustavo A. Madero,CDMX
190,SAN MIGUEL CUAUTEPEC,7109,884.1826866,19.55991797,-99.13590176,Gustavo A. Madero,CDMX
191,SAN MIGUEL-LA ESCALERA (BARR),7950,2252.96,19.47135667,-99.08908966,Gustavo A. Madero,CDMX
192,SAN PEDRO EL CHICO,7920,1981.83,19.4711696,-99.09787661,Gustavo A. Madero,CDMX
193,SAN PEDRO ZACATENCO (PBLO),7730,2122.536262,19.50650986,-99.12192032,Gustavo A. Madero,CDMX
194,SAN RAFAEL TICOMAN (BARR),7360,1632.474771,19.51531599,-99.1243848,Gustavo A. Madero,CDMX
195,SANTA ISABEL TOLA (PBLO),7810,2259.222479,19.49783704,-99.11394401,Gustavo A. Madero,CDMX
196,SANTA ROSA,7620,1918.44,19.52358712,-99.16922387,Gustavo A. Madero,CDMX
197,SANTIAGO ATEPETLAC,7670,1991.130077,19.52418742,-99.16042898,Gustavo A. Madero,CDMX
198,SANTIAGO ATEPETLAC (LA SELVITA) (U HAB),7640,2190.49,19.51957459,-99.14764167,Gustavo A. Madero,CDMX
199,SANTIAGO ATZACOALCO (PBLO),7430,1948.5,19.49620004,-99.09709067,Gustavo A. Madero,CDMX
200,SCT (U HAB),7770,4214.41,19.50768733,-99.15676211,Gustavo A. Madero,CDMX
201,SIETE MARAVILLAS,7709,2907.138571,19.51388988,-99.14384237,Gustavo A. Madero,CDMX
202,SOLIDARIDAD NACIONAL,7280,922.764589,19.53294239,-99.15383401,Gustavo A. Madero,CDMX
203,SUTIC VALLEJO (U HAB),7330,2716.99,19.51606657,-99.13957583,Gustavo A. Madero,CDMX
204,TABLAS DE SAN AGUSTIN,7890,1981.83,19.46455833,-99.1125676,Gustavo A. Madero,CDMX
205,TEPETATAL,7300,635.32,19.56249798,-99.13797876,Gustavo A. Madero,CDMX
206,TEPEYAC INSURGENTES,7820,3223.64825,19.48373178,-99.1218466,Gustavo A. Madero,CDMX
207,TLACAELEL,7750,637.2465934,19.55950237,-99.1446491,Gustavo A. Madero,CDMX
208,TLACAMACA,7870,2885.083717,19.47468352,-99.13676789,Gustavo A. Madero,CDMX
209,TLALPEXCO,7188,676.5039212,19.54660282,-99.12591314,Gustavo A. Madero,CDMX
210,TORRES DE QUIROGA (U HAB),7450,2425.71,19.49092079,-99.09599295,Gustavo A. Madero,CDMX
211,TORRES DE SAN JUAN (U HAB),7469,2425.71,19.47874397,-99.09293846,Gustavo A. Madero,CDMX
212,TORRES DE SAN JUAN 1B (U HAB),7495,2425.71,19.48058493,-99.09265531,Gustavo A. Madero,CDMX
213,TORRES LINDAVISTA (FRACC),7750,3944.719855,19.510373,-99.1435466,Gustavo A. Madero,CDMX
214,TRES ESTRELLAS,7820,1981.83,19.47221424,-99.11116109,Gustavo A. Madero,CDMX
215,TRIUNFO DE LA REPUBLICA,7070,1822.642051,19.49171791,-99.10943857,Gustavo A. Madero,CDMX
216,VALLE DE MADERO,7910,923.4826855,19.5504428,-99.13889921,Gustavo A. Madero,CDMX
217,VALLE DEL TEPEYAC,7790,3080.465294,19.48815202,-99.14162753,Gustavo A. Madero,CDMX
218,VALLEJO I,7880,3956.592761,19.46772618,-99.13441583,Gustavo A. Madero,CDMX
219,VALLEJO II,7890,4042.112642,19.46550336,-99.12863106,Gustavo A. Madero,CDMX
220,VALLEJO PONIENTE,7870,2611.56,19.4677311,-99.1423092,Gustavo A. Madero,CDMX
221,VASCO DE QUIROGA,7440,2009.44874,19.4943962,-99.09424193,Gustavo A. Madero,CDMX
222,VERONICA CASTRO,7144,557.55,19.57317046,-99.12919566,Gustavo A. Madero,CDMX
223,VILLA DE ARAGON,7570,2405.635067,19.46391633,-99.05750688,Gustavo A. Madero,CDMX
224,VILLA DE ARAGON (FRACC),7970,2380.752377,19.46848952,-99.06063316,Gustavo A. Madero,CDMX
225,VILLA GUSTAVO A MADERO,7660,2265.687834,19.48332371,-99.11227153,Gustavo A. Madero,CDMX
226,VILLA HERMOSA,7410,1604.13,19.50210296,-99.09220248,Gustavo A. Madero,CDMX
227,VISTA HERMOSA,7410,672.9,19.54777697,-99.12243322,Gustavo A. Madero,CDMX
228,ZONA ESCOLAR I,7300,938.48,19.53886306,-99.14993835,Gustavo A. Madero,CDMX
229,ZONA ESCOLAR II,7270,938.48,19.54159661,-99.14743419,Gustavo A. Madero,CDMX
230,ZONA ESCOLAR ORIENTE,7339,938.48,19.53980112,-99.14313331,Gustavo A. Madero,CDMX
0,PANTITLAN I,8100,4463.0,19.41663869,-99.06700054,Iztacalco,CDMX
1,PANTITLAN V,8100,6925.0,19.40632585,-99.06049633,Iztacalco,CDMX
2,FRACCIONAMIENTO COYUYA,8320,627.0,19.40045813,-99.11496305,Iztacalco,CDMX
3,EX EJIDOS DE LA MAGDALENA MIXIHUCA,8400,298.0,19.3932943,-99.08856992,Iztacalco,CDMX
4,AGRICOLA ORIENTAL I,8500,4809.0,19.40234107,-99.07669727,Iztacalco,CDMX
5,AGRICOLA ORIENTAL II,8500,2791.0,19.39468824,-99.07862517,Iztacalco,CDMX
6,AGRICOLA ORIENTAL III,8500,2487.0,19.39047869,-99.07563191,Iztacalco,CDMX
7,AGRICOLA ORIENTAL VIII,8500,2389.0,19.38781011,-99.06231984,Iztacalco,CDMX
8,CUCHILLA AGRICOLA ORIENTAL,8500,365.0,19.40423319,-99.08099744,Iztacalco,CDMX
9,AGRICOLA ORIENTAL IV,8510,2144.0,19.3998925,-99.06806985,Iztacalco,CDMX
10,AGRICOLA ORIENTAL V,8520,2601.0,19.39450845,-99.0690467,Iztacalco,CDMX
11,AGRICOLA ORIENTAL VI,8560,3475.0,19.39560413,-99.06197953,Iztacalco,CDMX
12,AGRICOLA ORIENTAL VII,8580,2179.0,19.38824367,-99.06817215,Iztacalco,CDMX
13,SAN FCO XICALTONGO,8619,455.0,19.39617725,-99.12502099,Iztacalco,CDMX
14,NUEVA STA ANITA,8630,621.0,19.39896853,-99.12684743,Iztacalco,CDMX
15,CUCHILLA RAMOS MILLAN,8730,1003.0,19.38743957,-99.09212465,Iztacalco,CDMX
16,JUVENTINO ROSAS II,8730,1222.0,19.39096716,-99.10604404,Iztacalco,CDMX
17,TLACOTAL RAMOS MILLAN,8730,1439.0,19.39551691,-99.10665128,Iztacalco,CDMX
18,AMPLIACION RAMOS MILLAN,8740,1883.0,19.38710699,-99.09786924,Iztacalco,CDMX
19,GABRIEL RAMOS MILLAN,8740,1374.0,19.39306173,-99.10169897,Iztacalco,CDMX
20,JUVENTINO ROSAS I,8740,1197.0,19.39256829,-99.11078451,Iztacalco,CDMX
21,MOSCO CHINAMPA,8760,209.0,19.38901249,-99.10146129,Iztacalco,CDMX
22,PICOS IZTACALCO 2A,8770,424.0,19.38831147,-99.10661618,Iztacalco,CDMX
23,VIADUCTO PIEDAD,8830,3098.0,19.40108553,-99.13154729,Iztacalco,CDMX
24,REFORMA IZTACCIHUATL SUR,8840,1411.0,19.3776493,-99.12860685,Iztacalco,CDMX
25,GRANJAS MEXICO II,8900,2829.0,19.39923232,-99.09432222,Iztacalco,CDMX
26,INFONAVIT IZTACALCO (U HAB) I,8900,3198.0,19.38550511,-99.10605858,Iztacalco,CDMX
27,REFORMA IZTACCIHUATL NORTE,8900,2001.0,19.38658583,-99.1298822,Iztacalco,CDMX
28,SAN MIGUEL,8900,1158.0,19.39192428,-99.11695229,Iztacalco,CDMX
29,SAN PEDRO IZTACALCO,8900,1114.0,19.39456946,-99.12910774,Iztacalco,CDMX
30,SANTIAGO NORTE,8900,767.0,19.39254948,-99.12427591,Iztacalco,CDMX
31,SANTIAGO SUR,8900,2153.0,19.38717751,-99.12512846,Iztacalco,CDMX
32,TLAZINTLA,8900,501.0,19.39652929,-99.11170486,Iztacalco,CDMX
33,LA CRUZ,8910,805.0,19.40332529,-99.11607147,Iztacalco,CDMX
34,LA ASUNCION,8920,403.0,19.38962095,-99.11860601,Iztacalco,CDMX
35,PICOS IZTACALCO 1-A,8920,417.0,19.38936144,-99.11483241,Iztacalco,CDMX
36,JARDINES TECMA,8930,250.0,19.38750962,-99.11697913,Iztacalco,CDMX
37,PICOS IZTACALCO 1B,8930,422.0,19.38886539,-99.11057709,Iztacalco,CDMX
38,RAMOS MILLAN BRAMADERO II,8930,1461.0,19.3925059,-99.09261107,Iztacalco,CDMX
39,SANTA CRUZ,8930,312.0,19.38828331,-99.12022337,Iztacalco,CDMX
40,RAMOS MILLAN BRAMADERO I,8000,1411.0,19.39206964,-99.09660962,Iztacalco,CDMX
41,CARLOS ZAPATA VELA,8040,1481.0,19.38234912,-99.09692812,Iztacalco,CDMX
42,EL RODEO,8510,951.0,19.39320139,-99.08526322,Iztacalco,CDMX
43,ZAPOTLA,8610,1501.0,19.39608029,-99.12097177,Iztacalco,CDMX
44,LOS REYES,8620,1479.0,19.39671926,-99.11731788,Iztacalco,CDMX
45,INFONAVIT IZTACALCO (U HAB) II,8900,2608.0,19.38238009,-99.10637599,Iztacalco,CDMX
46,MILITAR MARTE,8830,2485.0,19.38091967,-99.12864458,Iztacalco,CDMX
47,CAMPAMENTO 2 DE OCTUBRE II,8930,1332.0,19.3849573,-99.11947195,Iztacalco,CDMX
48,CAMPAMENTO 2 DE OCTUBRE I,8930,1771.0,19.38478526,-99.11393405,Iztacalco,CDMX
49,PANTITLAN II,8100,2874.0,19.41680358,-99.06043665,Iztacalco,CDMX
50,SANTA ANITA,8300,2790.0,19.40144995,-99.12087519,Iztacalco,CDMX
51,PANTITLAN IV,8100,5726.0,19.40833584,-99.06649631,Iztacalco,CDMX
52,GRANJAS MEXICO I,8400,3921.0,19.40132045,-99.1081694,Iztacalco,CDMX
53,PANTITLAN III,8100,3249.0,19.41045627,-99.07179252,Iztacalco,CDMX
54,INPI PICOS,8760,706.0,19.3877706,-99.10307932,Iztacalco,CDMX
0,REAL DEL MORAL (FRACC),9030,3297.644003,19.38993716,-99.08217841,Iztapalapa,CDMX
1,SAN JOSE (BARR),9040,2544.771418,19.36703746,-99.09280693,Iztapalapa,CDMX
2,SECTOR POPULAR,9060,2240.109342,19.36646679,-99.11753713,Iztapalapa,CDMX
3,DR ALFONSO ORTIZ TIRADO,9090,3396.169467,19.38717101,-99.07811019,Iztapalapa,CDMX
4,HEROES DE CHURUBUSCO,9099,2339.17916,19.36071514,-99.1181309,Iztapalapa,CDMX
5,JUAN ESCUTIA I,9100,2495.760804,19.39585098,-99.05020867,Iztapalapa,CDMX
6,CONCORDIA ZARAGOZA (U HAB),9140,2974.280443,19.36778953,-99.00777143,Iztapalapa,CDMX
7,SAN LORENZO XICOTENCATL (PBLO),9140,1254.265714,19.38380529,-99.02707329,Iztapalapa,CDMX
8,TEXCOCO EL SALADO,9140,1199.91,19.37446712,-99.005225,Iztapalapa,CDMX
9,VICENTE GUERRERO SUPER MANZANA 1 (U HAB),9200,1702.71,19.36235415,-99.0635495,Iztapalapa,CDMX
10,CABEZA DE JUAREZ I (U HAB),9208,1309.46,19.38497502,-99.04409214,Iztapalapa,CDMX
11,9 1/2 - FRANCISCO VILLA (EJERCITO CONSTITUCIONALISTA) (CONJ HAB),9220,1309.46,19.37741407,-99.04984904,Iztapalapa,CDMX
12,ALVARO OBREGON,9220,1309.46,19.37772922,-99.04052654,Iztapalapa,CDMX
13,CHINAMPAC DE JUAREZ I,9220,1309.46,19.37732466,-99.05655634,Iztapalapa,CDMX
14,"EJTO CONSTITUCIONALISTA, SUPERMANZANA III (U HAB)",9220,1309.46,19.38228943,-99.05305201,Iztapalapa,CDMX
15,GUELATAO DE JUAREZ II (U HAB),9220,1309.46,19.38405911,-99.0447877,Iztapalapa,CDMX
16,CHINAMPAC DE JUAREZ II,9225,1309.46,19.37686664,-99.0506229,Iztapalapa,CDMX
17,ROTARIOS (U HAB),9226,2585.807714,19.38729356,-99.0407716,Iztapalapa,CDMX
18,ANTORCHA POPULAR I (U HAB),9227,1309.46,19.38371266,-99.04310581,Iztapalapa,CDMX
19,EJTO CONSTITUCIONALISTA II ( U HAB),9227,1309.46,19.38567532,-99.04362879,Iztapalapa,CDMX
20,TEPALCATES II,9227,2386.28792,19.39236261,-99.05588845,Iztapalapa,CDMX
21,CABEZA DE JUAREZ II (U HAB),9230,1309.46,19.38469148,-99.04241537,Iztapalapa,CDMX
22,CABEZA DE JUAREZ III (U HAB),9230,1309.46,19.38312784,-99.04165628,Iztapalapa,CDMX
23,EJTO CONSTITUCIONALISTA,9230,1332.155159,19.3804443,-99.05441796,Iztapalapa,CDMX
24,"EJTO CONSTITUCIONALISTA, SUPERMANZANA I ( U HAB)",9230,1309.46,19.3870737,-99.04907489,Iztapalapa,CDMX
25,ERMITA ZARAGOZA (U HAB) II,9230,1880.56,19.36748378,-98.99687956,Iztapalapa,CDMX
26,GUELATAO DE JUAREZ I (U HAB),9230,1838.84,19.38660336,-99.04263572,Iztapalapa,CDMX
27,IGNACIO ZARAGOZA (U HAB),9230,1393.786018,19.38512483,-99.04032271,Iztapalapa,CDMX
28,JOSE MA MORELOS Y PAVON (U HAB),9230,1290.96,19.3737154,-99.02713857,Iztapalapa,CDMX
29,JUAN ESCUTIA III,9230,1835.013661,19.38683137,-99.03240332,Iztapalapa,CDMX
30,LA JOYA,9230,1290.96,19.37283089,-99.03134182,Iztapalapa,CDMX
31,PARAISO (AMPL),9230,1290.96,19.37751254,-99.0325134,Iztapalapa,CDMX
32,PEON VIEJO (U HAB),9230,1290.96,19.37603381,-99.02952835,Iztapalapa,CDMX
33,EJERCITO DE ORIENTE (U HAB) I,9239,2277.83839,19.36931211,-99.02597584,Iztapalapa,CDMX
34,EJERCITO DE ORIENTE (U HAB) II,9239,2300.6,19.36846042,-99.0301722,Iztapalapa,CDMX
35,ALBARRADAS (U HAB),9240,2598.35,19.35670999,-99.06197745,Iztapalapa,CDMX
36,LAS AMERICAS (U HAB),9240,2598.35,19.35673216,-99.06367948,Iztapalapa,CDMX
37,LA REGADERA,9260,2559.551569,19.35303224,-99.0636712,Iztapalapa,CDMX
38,VICENTE GUERRERO SUPER MANZANA 5 (U HAB),9280,1702.71,19.3542944,-99.05149375,Iztapalapa,CDMX
39,PREDIO SANTA CRUZ MEYEHUALCO,9290,1087.8,19.35174164,-99.04829801,Iztapalapa,CDMX
40,NORMA ISSSTE (U HAB),9300,2308.67,19.36380411,-99.07687349,Iztapalapa,CDMX
41,LA COLMENA,9310,2053.05024,19.36876104,-99.00177725,Iztapalapa,CDMX
42,CUCHILLAS DEL MORAL (U HAB),9319,2804.676294,19.3846596,-99.07065712,Iztapalapa,CDMX
43,M MAZA DE JUAREZ (U HAB),9330,2271.425489,19.36983956,-99.06977001,Iztapalapa,CDMX
44,LEYES DE REFORMA 2A SECCION,9340,1562.149689,19.36898464,-99.067533,Iztapalapa,CDMX
45,ERMITA ZARAGOZA (U HAB) I,9360,1891.709461,19.36314788,-98.9978889,Iztapalapa,CDMX
46,PRIVADA GAVILAN (U HAB),9369,2308.67,19.35959926,-99.07646557,Iztapalapa,CDMX
47,SIDERAL,9370,2005.48,19.37356678,-99.06565409,Iztapalapa,CDMX
48,LA ASUNCION (BARR),9400,2286.102713,19.36349131,-99.09186872,Iztapalapa,CDMX
49,JARDINES DE CHURUBUSCO,9420,2443.916358,19.37501689,-99.10649216,Iztapalapa,CDMX
50,LA NUEVA ROSITA,9420,2455.34,19.37751753,-99.10594011,Iztapalapa,CDMX
51,PURISIMA ATLAZOLPA,9429,2455.34,19.37997736,-99.10816777,Iztapalapa,CDMX
52,EL TRIUNFO,9430,2718.98,19.37754308,-99.12018879,Iztapalapa,CDMX
53,LOS PICOS VI B,9430,1955.51,19.37973415,-99.10471481,Iztapalapa,CDMX
54,MAGDALENA ATLAZOLPA (PBLO),9430,2699.161365,19.37574294,-99.11158954,Iztapalapa,CDMX
55,EL RETOO,9440,2975.641236,19.37185897,-99.12535251,Iztapalapa,CDMX
56,BANJIDAL,9470,2722.10575,19.36266597,-99.13719605,Iztapalapa,CDMX
57,JUSTO SIERRA,9470,2689.955952,19.36240918,-99.13482796,Iztapalapa,CDMX
58,MODELO (U),9470,3126.917294,19.36388119,-99.12515795,Iztapalapa,CDMX
59,SINATEL,9479,2745.306639,19.36121944,-99.13249221,Iztapalapa,CDMX
60,SINATEL (AMPL),9479,2662.33,19.36561776,-99.13012622,Iztapalapa,CDMX
61,XOPA (U HAB),9480,2662.33,19.36029545,-99.124986,Iztapalapa,CDMX
62,ZACAHUITZCO,9490,3002.2,19.37405563,-99.13427085,Iztapalapa,CDMX
63,ART 4TO CONSTITUCIONAL (U HAB),9500,1290.96,19.36784496,-99.0340998,Iztapalapa,CDMX
64,FUENTES DE ZARAGOZA (U HAB),9510,1199.91,19.36933539,-99.00727076,Iztapalapa,CDMX
65,PARAISO,9510,1319.888249,19.37631147,-99.03281796,Iztapalapa,CDMX
66,EL EDEN,9530,1087.8,19.36461133,-99.01433168,Iztapalapa,CDMX
67,LA JOYITA,9530,1199.91,19.37585486,-99.02639064,Iztapalapa,CDMX
68,SOLIDARIDAD EL SALADO (U HAB),9540,1199.91,19.37287018,-99.00696757,Iztapalapa,CDMX
69,SAN ANDRES TETEPILCO (PBLO),9550,3002.2,19.37228459,-99.13088006,Iztapalapa,CDMX
70,GAVILAN (U HAB),9560,2308.67,19.35847876,-99.07505653,Iztapalapa,CDMX
71,MONTE ALBAN,9570,1087.8,19.3544605,-99.02047137,Iztapalapa,CDMX
72,SAN SEBASTIAN TECOLOXTITLAN (PBLO),9570,1087.8,19.36170031,-99.01583859,Iztapalapa,CDMX
73,SANTA MARTHA ACATITLA SUR (AMPL),9570,1256.98,19.36421451,-99.02138434,Iztapalapa,CDMX
74,CAROLOS PACHECO (U HAB),9578,1290.96,19.36401188,-99.02996526,Iztapalapa,CDMX
75,EJERCITO DE AGUA PRIETA,9578,1290.96,19.36804511,-99.03710422,Iztapalapa,CDMX
76,STA MARTHA ACATITLA NTE (AMPL) II,9590,1278.691775,19.37569319,-99.01328781,Iztapalapa,CDMX
77,PURISIMA I,9600,1727.15,19.36486212,-99.0538809,Iztapalapa,CDMX
78,SANTA MARTHA ACATITLA_(PBLO),9638,1516.417275,19.36025376,-99.00688767,Iztapalapa,CDMX
79,EJTO DE OTE II (U HAB),9640,1585.284673,19.38147433,-99.0350975,Iztapalapa,CDMX
80,SANTA MARTHA ACATITLA,9651,1297.536407,19.37074731,-99.01946656,Iztapalapa,CDMX
81,PARAJE ZACATEPEC,9660,1112.814496,19.3553461,-99.01820123,Iztapalapa,CDMX
82,SAN MIGUEL (BARR),9660,2448.576891,19.35613764,-99.07865812,Iztapalapa,CDMX
83,XALPA III,9670,965.959515,19.33866652,-99.0178169,Iztapalapa,CDMX
84,BARRANCAS DE GUADALUPE,9689,201.73,19.32732982,-99.02295952,Iztapalapa,CDMX
85,TENORIOS (AMPL),9690,715.9725703,19.32732356,-99.02022827,Iztapalapa,CDMX
86,MIRAVALLE,9696,470.4192222,19.33594356,-98.99784993,Iztapalapa,CDMX
87,"SAN PABLO I, II Y V-LOMAS DEL PARAISO",9696,362.3551688,19.33363656,-99.00530461,Iztapalapa,CDMX
88,2A AMPLIACION SANTIAGO ACAHUALTEPEC I,9698,1090.010329,19.3485045,-99.01403314,Iztapalapa,CDMX
89,2A AMPLIACION SANTIAGO ACAHUALTEPEC II,9698,1050.811697,19.34601201,-99.00875471,Iztapalapa,CDMX
90,EMILIANO ZAPATA (AMPL),9699,654.2590195,19.33913137,-98.97889839,Iztapalapa,CDMX
91,SAN MIGUEL TEOTONGO I,9699,786.94,19.35101741,-98.99166199,Iztapalapa,CDMX
92,SAN MIGUEL TEOTONGO IV,9699,778.9285879,19.33717638,-98.98852996,Iztapalapa,CDMX
93,CONSTITUCION DE 1917 II,9700,2529.258392,19.34892079,-99.05774399,Iztapalapa,CDMX
94,FUERTE DE LORETO - LA ANTENA (U HAB),9700,1290.96,19.36555164,-99.03197506,Iztapalapa,CDMX
95,LEYES DE REFORMA 1A SECCION,9700,1855.99,19.35994122,-99.07008394,Iztapalapa,CDMX
96,LEYES DE REFORMA 3A SECCION I,9700,1985.326771,19.38061037,-99.06860709,Iztapalapa,CDMX
97,SAN IGNACIO (BARR),9700,2283.45,19.36453715,-99.09639494,Iztapalapa,CDMX
98,SANTA BARBARA (BARR) II,9700,2283.45,19.365525,-99.101207,Iztapalapa,CDMX
99,SANTA MARIA AZTAHUACAN (EJ) I,9700,992.3519542,19.359215,-99.03273407,Iztapalapa,CDMX
100,VICENTE GUERRERO SUPER MANZANA 4 (U HAB),9700,1702.71,19.36021749,-99.05145907,Iztapalapa,CDMX
101,VICENTE GUERRERO SUPER MANZANA 6 (U HAB),9700,1702.71,19.35511239,-99.05657988,Iztapalapa,CDMX
102,VICENTE GUERRERO SUPER MANZANA 7 (U HAB),9700,1702.71,19.35643674,-99.06009036,Iztapalapa,CDMX
103,DEGOLLADO,9704,422.5714764,19.31942783,-99.0427188,Iztapalapa,CDMX
104,DEGOLLADO CHICO,9705,201.73,19.31830273,-99.03839767,Iztapalapa,CDMX
105,PREDIO DEGOLLADO,9705,213.1053995,19.31779548,-99.04023644,Iztapalapa,CDMX
106,PARAJES BUENAVISTA (TETECON),9706,735.2566667,19.3234803,-99.02887485,Iztapalapa,CDMX
107,SAN JOSE BUENAVISTA,9709,409.0068069,19.32402064,-99.03349459,Iztapalapa,CDMX
108,VICENTE GUERRERO SUPER MANZANA 2 (U HAB),9710,1702.71,19.36150289,-99.05950574,Iztapalapa,CDMX
109,PALMITAS,9730,1108.55,19.33508451,-99.02645376,Iztapalapa,CDMX
110,PASEOS DE CHURUBUSCO,9730,3555.687332,19.38568612,-99.08636123,Iztapalapa,CDMX
111,REFORMA POLITICA I,9730,1253.011284,19.33723298,-99.02909319,Iztapalapa,CDMX
112,SANTA MARIA AZTAHUACAN (U HAB),9730,3041.907143,19.34209517,-99.02712711,Iztapalapa,CDMX
113,SANTIAGO ACAHUALTEPEC (PBLO),9730,1176.190639,19.35320464,-99.00334592,Iztapalapa,CDMX
114,SIERRA DEL VALLE,9730,1468.10878,19.34273081,-99.03074053,Iztapalapa,CDMX
115,LOMAS DE ZARAGOZA,9740,818.063493,19.35279259,-98.99773086,Iztapalapa,CDMX
116,STA MARTHA ACATITLA NTE (AMPL) I,9740,1280.557868,19.38026792,-99.02009163,Iztapalapa,CDMX
117,XALPA II,9740,996.0582318,19.34318535,-99.01400207,Iztapalapa,CDMX
118,CARLOS HANK GONZALEZ,9750,1081.183429,19.33156075,-99.04737987,Iztapalapa,CDMX
119,DESARROLLO URBANO QUETZALCOATL  III,9750,978.8129928,19.32281525,-99.04021996,Iztapalapa,CDMX
120,LA MAGUEYERA,9750,602.5510932,19.3207928,-99.04416322,Iztapalapa,CDMX
121,REFORMA POLITICA II,9750,1282.098655,19.33881996,-99.03251704,Iztapalapa,CDMX
122,SANTA MARIA AZTAHUACAN (EJ) II,9750,1068.743799,19.3498218,-99.03271489,Iztapalapa,CDMX
123,BUENAVISTA II,9760,928.538556,19.32685116,-99.02990997,Iztapalapa,CDMX
124,DESARROLLO URBANO QUETZALCOATL  I,9760,1190.660134,19.33235637,-99.03942769,Iztapalapa,CDMX
125,BUENAVISTA I,9770,1002.291098,19.33089362,-99.03040779,Iztapalapa,CDMX
126,EL TRIANGULO,9790,1655.318536,19.32222611,-99.05161353,Iztapalapa,CDMX
127,RENOVACION,9790,1362.377675,19.36844771,-99.04944272,Iztapalapa,CDMX
128,EL SIFON,9800,3020.010081,19.37181228,-99.11759723,Iztapalapa,CDMX
129,VALLE DE LUCES II,9800,1460.53,19.33947621,-99.10404384,Iztapalapa,CDMX
130,ACULCO (PBLO),9810,2322.65,19.37323137,-99.10517394,Iztapalapa,CDMX
131,APATLACO,9810,2718.98,19.38017724,-99.11569384,Iztapalapa,CDMX
132,GRANJAS ESMERALDA,9810,2198.251285,19.35402972,-99.11859193,Iztapalapa,CDMX
133,GRANJAS SAN ANTONIO,9810,2248.284709,19.36416045,-99.10749557,Iztapalapa,CDMX
134,MEXICALTZINGO (PBLO),9810,2357.18649,19.35827013,-99.11992163,Iztapalapa,CDMX
135,MINERVA,9810,2178.424592,19.3531838,-99.10990952,Iztapalapa,CDMX
136,PROGRESO DEL SUR,9810,2226.520548,19.3522552,-99.11241975,Iztapalapa,CDMX
137,SANTA BARBARA (BARR) I,9810,2366.342297,19.35943678,-99.10288857,Iztapalapa,CDMX
138,LOS CIPRESES,9820,2200.039235,19.35324326,-99.10833003,Iztapalapa,CDMX
139,SAN LUCAS (BARR),9820,2473.80308,19.3593154,-99.09666953,Iztapalapa,CDMX
140,SAN PABLO (BARR),9820,2445.677579,19.35961399,-99.088706,Iztapalapa,CDMX
141,STA ISABEL INDUSTRIAL,9820,2278.195652,19.35221803,-99.10439449,Iztapalapa,CDMX
142,1A AMPLIACION SANTIAGO ACAHUALTEPEC,9828,1151.251908,19.3522737,-99.00820941,Iztapalapa,CDMX
143,CITLALLI,9828,1250.613452,19.33991025,-99.02274061,Iztapalapa,CDMX
144,DESARROLLO URBANO QUETZALCOATL  II,9828,1175.6,19.32835959,-99.04340089,Iztapalapa,CDMX
145,RICARDO FLORES MAGON,9828,2283.194704,19.35386749,-99.09782419,Iztapalapa,CDMX
146,COLONIAL IZTAPALAPA (FRACC),9830,2635.211128,19.3467891,-99.05552314,Iztapalapa,CDMX
147,CONSTITUCION DE 1917 I,9830,2551.628741,19.34970569,-99.06424927,Iztapalapa,CDMX
148,CUITLAHUAC (U HAB),9830,2115.74,19.34357391,-99.06341252,Iztapalapa,CDMX
149,GUADALUPE DEL MORAL,9830,2331.685178,19.36958526,-99.07421027,Iztapalapa,CDMX
150,INSURGENTES,9830,1138.160887,19.33105393,-99.05340373,Iztapalapa,CDMX
151,JACARANDAS,9830,1943.508451,19.34699202,-99.05135755,Iztapalapa,CDMX
152,LA ERA,9830,1972.581713,19.3395317,-99.05466424,Iztapalapa,CDMX
153,LAS PEAS I,9830,1620.635217,19.33569638,-99.05122672,Iztapalapa,CDMX
154,LAS PEAS II,9830,1800.576527,19.34027556,-99.0493897,Iztapalapa,CDMX
155,LOMAS DE LA ESTANCIA II,9830,716.9187455,19.33633254,-99.00980746,Iztapalapa,CDMX
156,LOS ANGELES APANOAYA,9830,2073.311169,19.34159625,-99.06062456,Iztapalapa,CDMX
157,RICARDO FLORES MAGON (AMPL),9830,2479.811693,19.35444648,-99.1003347,Iztapalapa,CDMX
158,SAN JOSE ACULCO,9830,2322.65,19.37669671,-99.09946557,Iztapalapa,CDMX
159,SANTA CRUZ MEYEHUALCO (U HAB) I,9830,1136.842733,19.34596257,-99.03880159,Iztapalapa,CDMX
160,SANTA CRUZ MEYEHUALCO (U HAB) II,9830,1111.549108,19.34790052,-99.04523327,Iztapalapa,CDMX
161,STA MA AZTAHUACAN (PBLO),9830,1146.08538,19.3503396,-99.02370833,Iztapalapa,CDMX
162,XALPA I,9830,867.301334,19.33237355,-99.01526343,Iztapalapa,CDMX
163,LOMAS DE LA ESTANCIA I,9838,749.7942143,19.33895354,-99.00615673,Iztapalapa,CDMX
164,MIGUEL DE LA MADRID HURTADO,9838,740.82,19.34353648,-99.00314896,Iztapalapa,CDMX
165,EL PRADO,9840,2797.350959,19.35814538,-99.13613068,Iztapalapa,CDMX
166,EL TRIUNFO (AMPL),9840,2718.98,19.37609325,-99.11542184,Iztapalapa,CDMX
167,VALLE DE LUCES (U HAB),9840,1460.53,19.34123111,-99.10444449,Iztapalapa,CDMX
168,8A DE SAN MIGUEL (AMPL),9850,2214.481183,19.35075259,-99.07813401,Iztapalapa,CDMX
169,GAMA GAVILAN (U HAB),9850,2308.67,19.36047004,-99.07928628,Iztapalapa,CDMX
170,GRANJAS ESTRELLA III,9850,1405.11,19.32843888,-99.08304417,Iztapalapa,CDMX
171,SAN PEDRO (BARR),9850,2725.888558,19.36461556,-99.0857361,Iztapalapa,CDMX
172,TEPALCATES I,9850,2336.559958,19.39019694,-99.05305793,Iztapalapa,CDMX
173,ESTADO DE VERACRUZ,9856,1460.53,19.35094388,-99.08864905,Iztapalapa,CDMX
174,LOMAS EL MANTO,9856,1460.53,19.35102116,-99.08709932,Iztapalapa,CDMX
175,VERACRUZANA (AMPL),9856,1460.53,19.35084774,-99.08985391,Iztapalapa,CDMX
176,TULA (BARR),9857,1526.515671,19.33721586,-99.11204344,Iztapalapa,CDMX
177,EL MANTO,9858,1616.541196,19.34926142,-99.08333922,Iztapalapa,CDMX
178,EL MANTO PLAN DE IGUALA,9858,1460.53,19.35265888,-99.08527779,Iztapalapa,CDMX
179,ESTRELLA DEL SUR,9858,1698.966761,19.34963318,-99.09956558,Iztapalapa,CDMX
180,SAN JUAN CERRO (PJE),9858,1762.19247,19.34601652,-99.08007523,Iztapalapa,CDMX
181,CASA BLANCA,9860,1405.11,19.33207669,-99.0676061,Iztapalapa,CDMX
182,EL SANTUARIO (AMPL),9860,1712.51933,19.35116233,-99.09561386,Iztapalapa,CDMX
183,ESCUADRON 201,9860,2196.419843,19.36316827,-99.11205342,Iztapalapa,CDMX
184,SAN JUAN 2A AMPLIACIN (PJE),9860,1794.64,19.33766269,-99.06984771,Iztapalapa,CDMX
185,SAN JUAN XALPA I,9860,1847.264721,19.33793565,-99.08363737,Iztapalapa,CDMX
186,SAN LORENZO 870 (U HAB),9860,1405.11,19.33271064,-99.07430738,Iztapalapa,CDMX
187,SAN LORENZO TEZONCO I (U HAB),9860,1405.11,19.33667261,-99.07273247,Iztapalapa,CDMX
188,SAN LORENZO TEZONCO II (U HAB),9860,1405.11,19.33416799,-99.0667873,Iztapalapa,CDMX
189,VALLE DE LUCES I,9860,1460.53,19.3396668,-99.09979044,Iztapalapa,CDMX
190,12 DE DICIEMBRE,9870,1460.53,19.32995621,-99.10014089,Iztapalapa,CDMX
191,BELLAVISTA (U HAB),9870,1405.11,19.33026679,-99.0713301,Iztapalapa,CDMX
192,CULHUACAN (PBLO),9870,1567.389836,19.33855861,-99.1073668,Iztapalapa,CDMX
193,EL MIRADOR,9870,1460.53,19.33706909,-99.10148743,Iztapalapa,CDMX
194,EL SANTUARIO,9870,3078.3491,19.35508334,-99.09244461,Iztapalapa,CDMX
195,ESTRELLA CULHUACAN,9870,1460.53,19.33152359,-99.10751714,Iztapalapa,CDMX
196,SAN SIMON CULHUACAN (BARR),9870,1462.056247,19.33460997,-99.10629717,Iztapalapa,CDMX
197,SANTA MARIA DEL MONTE,9870,1460.53,19.35275151,-99.0892823,Iztapalapa,CDMX
198,SANTA MARIA TOMATLAN,9870,1460.53,19.32666194,-99.0981321,Iztapalapa,CDMX
199,SANTA MARIA TOMATLAN (PBLO),9870,1460.53,19.3245402,-99.10065923,Iztapalapa,CDMX
200,ALCANFORES (U HAB),9880,1405.11,19.33546146,-99.07144217,Iztapalapa,CDMX
201,CACAMA,9880,3129.899327,19.3588574,-99.12648064,Iztapalapa,CDMX
202,EL VERGEL TRIANGULO DE LAS AGUJAS II (U HAB),9880,1405.11,19.30837426,-99.08690881,Iztapalapa,CDMX
203,GRANJAS ESTRELLA II,9880,1405.11,19.32885526,-99.08726781,Iztapalapa,CDMX
204,LA POLVORILLA,9880,1351.18,19.32112467,-99.04810601,Iztapalapa,CDMX
205,SAN JUAN JOYA (PJE),9880,1994.976991,19.33653722,-99.06566226,Iztapalapa,CDMX
206,TENORIOS,9880,1009.904716,19.33162586,-99.02151109,Iztapalapa,CDMX
207,ZONA MILITAR FAVE SEDENA (U HAB),9885,1405.11,19.31438476,-99.08572103,Iztapalapa,CDMX
208,EL RODEO,9890,1405.11,19.33353696,-99.07113134,Iztapalapa,CDMX
209,FUEGO NUEVO,9890,1460.53,19.33247595,-99.09926664,Iztapalapa,CDMX
210,GRANJAS ESTRELLA I,9890,1571.953932,19.32425891,-99.08727732,Iztapalapa,CDMX
211,LOMAS ESTRELLA  III (U HAB),9890,1472.797273,19.32809203,-99.09258601,Iztapalapa,CDMX
212,LOMAS ESTRELLA 1A SECC (FRACC),9890,2910.338901,19.3244539,-99.0943679,Iztapalapa,CDMX
213,LOS REYES (AMPL),9890,1762.908185,19.34517949,-99.10279837,Iztapalapa,CDMX
214,LOS REYES (PBLO),9890,1846.453758,19.3460065,-99.10952834,Iztapalapa,CDMX
215,SAN NICOLAS TOLENTINO I,9890,1405.11,19.32795608,-99.07206454,Iztapalapa,CDMX
216,SANTA MARIA TOMATLAN (AMPL),9890,1453.658518,19.32938072,-99.09626173,Iztapalapa,CDMX
217,CHINAMPAS DE SANTA MA TOMATLAN,9897,1405.11,19.30790349,-99.08927636,Iztapalapa,CDMX
218,BENITO JUAREZ,9900,1405.11,19.32972319,-99.0794614,Iztapalapa,CDMX
219,CERRO DE LA ESTRELLA I,9900,1405.11,19.32684823,-99.07911267,Iztapalapa,CDMX
220,CERRO DE LA ESTRELLA II,9900,1956.284311,19.32177939,-99.07853105,Iztapalapa,CDMX
221,CONSEJO AGRARISTA MEXICANO II,9900,1494.410107,19.32728314,-99.0537781,Iztapalapa,CDMX
222,EL VERGEL,9900,1518.600821,19.31694518,-99.08215404,Iztapalapa,CDMX
223,GUADALUPE (BARR),9900,1503.4292,19.31238789,-99.07135426,Iztapalapa,CDMX
224,LOMAS DE SANTA CRUZ MEYEHUALCO,9900,1042.202063,19.3316136,-99.03540115,Iztapalapa,CDMX
225,SAN ANDRES TOMATLAN (PBLO),9900,1460.53,19.32826731,-99.10536204,Iztapalapa,CDMX
226,SAN ANTONIO CULHUACAN (BARR),9900,1527.486319,19.34067634,-99.11186774,Iztapalapa,CDMX
227,LA ESPERANZA,9910,1405.11,19.31050848,-99.07849151,Iztapalapa,CDMX
228,CHINAMPAC DE JUAREZ III,9920,1309.46,19.37369657,-99.05459106,Iztapalapa,CDMX
229,JOSE LOPEZ PORTILLO I,9920,1405.11,19.30412856,-99.0831323,Iztapalapa,CDMX
230,JOSE LOPEZ PORTILLO II,9920,1405.11,19.30822789,-99.08050536,Iztapalapa,CDMX
231,MIXCOATL,9920,1134.53,19.32434891,-99.04759774,Iztapalapa,CDMX
232,SAN LORENZO TEZONCO (PBLO),9920,1481.62267,19.31256014,-99.06776814,Iztapalapa,CDMX
233,CONSEJO AGRARISTA MEXICANO I,9930,1665.28,19.32402998,-99.05851478,Iztapalapa,CDMX
234,SAN JUANICO NEXTIPAC (PBLO),9938,2448.016607,19.37387009,-99.11760592,Iztapalapa,CDMX
235,PRESIDENTES DE MEXICO,9940,2022.43561,19.33177813,-99.0618851,Iztapalapa,CDMX
236,ALLEPETLALI (U HAB),9960,1145.91,19.28874275,-99.06707943,Iztapalapa,CDMX
237,EL MOLINO,9960,1183.081126,19.29766726,-99.06805345,Iztapalapa,CDMX
238,EL MOLINO_,9960,1686.761031,19.35526879,-99.08768191,Iztapalapa,CDMX
239,EL ROSARIO,9960,1410.284723,19.30154478,-99.06545889,Iztapalapa,CDMX
240,F P F V (PREDIO EL MOLINO) ( U HAB),9960,1145.91,19.2881479,-99.06985311,Iztapalapa,CDMX
241,FRANCISCO VILLA,9960,1793.408902,19.33702917,-99.05907799,Iztapalapa,CDMX
242,HUASIPUNGO (U HAB),9960,1145.91,19.28932673,-99.07287533,Iztapalapa,CDMX
243,JARDINES DE SAN LORENZO,9960,1145.91,19.29546467,-99.07347825,Iztapalapa,CDMX
244,LOMAS ESTRELLA 2A SECC I,9960,2286.549228,19.31702281,-99.0886186,Iztapalapa,CDMX
245,MOYOCOYANI (U HAB),9960,1145.91,19.28909242,-99.06995347,Iztapalapa,CDMX
246,NA HAL TI (U HAB),9960,1145.91,19.28842526,-99.0707423,Iztapalapa,CDMX
247,NUEVA GENERACION (U HAB),9960,1145.91,19.28876583,-99.07274744,Iztapalapa,CDMX
248,PROGRESISTA,9960,2534.373587,19.35653059,-99.06777794,Iztapalapa,CDMX
249,RINCONADA EL MOLINO,9960,1145.91,19.28654902,-99.069482,Iztapalapa,CDMX
250,SAN LORENZO TEZONCO (BARR),9960,1421.111316,19.30344051,-99.06928716,Iztapalapa,CDMX
251,TLALTENCO (U HAB),9960,1145.91,19.29006656,-99.06836648,Iztapalapa,CDMX
252,TLANEZICALLI (U HAB),9960,1145.91,19.29080048,-99.07513152,Iztapalapa,CDMX
253,USCOVI (U HAB),9960,1145.91,19.2939525,-99.06896312,Iztapalapa,CDMX
254,VALLE DEL SUR,9960,1460.53,19.34793201,-99.1147344,Iztapalapa,CDMX
255,CANANEA (U HAB),9969,1259.951985,19.29200086,-99.06810092,Iztapalapa,CDMX
256,CARMEN SERDAN ( U HAB),9970,1145.91,19.2992385,-99.0800019,Iztapalapa,CDMX
257,PLENITUD (U HAB),9970,1145.91,19.29916526,-99.08115478,Iztapalapa,CDMX
258,PUENTE BLANCO,9970,1405.11,19.32768622,-99.06447681,Iztapalapa,CDMX
259,SAN ANTONIO (BARR),9970,1414.18765,19.30525733,-99.07347378,Iztapalapa,CDMX
260,VALLE DE SAN LORENZO I,9970,1145.91,19.29773267,-99.07727776,Iztapalapa,CDMX
261,VALLE DE SAN LORENZO II,9970,1145.91,19.30174338,-99.07828693,Iztapalapa,CDMX
262,AO DE JUAREZ,9980,1474.926696,19.31980166,-99.07330322,Iztapalapa,CDMX
263,LOMAS DE SAN LORENZO II,9980,1473.202402,19.31909909,-99.0668488,Iztapalapa,CDMX
264,MIRASOLES (U HAB),9980,1856.447696,19.31316488,-99.07576921,Iztapalapa,CDMX
265,"EJTO CONSTITUCIONALISTA, SUPERMANZANA II ( U HAB)",9220,1309.46,19.38617445,-99.05624284,Iztapalapa,CDMX
266,PARAJE SAN JUAN,9839,1744.82,19.34177655,-99.07170965,Iztapalapa,CDMX
