nombre_col,codigo_postal,prom_valor_unitario_suelo,latitud,longitud,alcaldia,estado
VALLE GOMEZ,15220,3020.98,19.45689246,-99.11950353,Venustiano Carranza,CDMX
MICHOACANA,15250,3020.98,19.44696192,-99.11557088,Venustiano Carranza,CDMX
MICHOACANA (AMPL),15250,3020.98,19.4482982,-99.11308566,Venustiano Carranza,CDMX
JANITZIO,15270,3031.528168,19.44743444,-99.11751503,Venustiano Carranza,CDMX
VALENTIN GOMEZ FARIAS,15290,1985.321379,19.41616435,-99.09351301,Venustiano Carranza,CDMX
10 DE MAYO,15299,3386.010092,19.43364251,-99.117868,Venustiano Carranza,CDMX
EMILIO CARRANZA,15300,3340.517509,19.4492032,-99.12045137,Venustiano Carranza,CDMX
POPULAR RASTRO,15300,3040.667574,19.45237958,-99.1197982,Venustiano Carranza,CDMX
FELIPE ANGELES,15310,3020.98,19.45312572,-99.112434,Venustiano Carranza,CDMX
AZTECA,15320,3020.98,19.4383333,-99.10792059,Venustiano Carranza,CDMX
TRES MOSQUETEROS,15340,3020.98,19.44075623,-99.106519,Venustiano Carranza,CDMX
VENUSTIANO CARRANZA (AMPL),15340,3020.98,19.4441314,-99.10502832,Venustiano Carranza,CDMX
20 DE NOVIEMBRE (AMPL),15360,3020.98,19.44182948,-99.11404575,Venustiano Carranza,CDMX
PROGRESISTA,15370,3020.98,19.43619728,-99.10879432,Venustiano Carranza,CDMX
7 DE JULIO,15390,3062.297322,19.43253825,-99.1136382,Venustiano Carranza,CDMX
PENITENCIARIA (AMPL),15390,3257.881364,19.43643484,-99.11850559,Venustiano Carranza,CDMX
SIMON  BOLIVAR,15420,3020.98,19.44833359,-99.09741551,Venustiano Carranza,CDMX
AQUILES SERDAN,15450,3020.98,19.44707773,-99.09192395,Venustiano Carranza,CDMX
DAMIAN CARMONA,15450,3020.98,19.4430467,-99.10270968,Venustiano Carranza,CDMX
REVOLUCION,15460,3020.98,19.43929921,-99.10404467,Venustiano Carranza,CDMX
MIGUEL HIDALGO,15470,3020.98,19.43602936,-99.10642377,Venustiano Carranza,CDMX
VENUSTIANO CARRANZA,15500,3020.98,19.43935831,-99.11131342,Venustiano Carranza,CDMX
NICOLAS BRAVO,15520,3105.115313,19.45407608,-99.12345574,Venustiano Carranza,CDMX
PENSADOR MEXICANO I,15520,3020.98,19.44420633,-99.08334201,Venustiano Carranza,CDMX
PENSADOR MEXICANO II,15520,3020.98,19.44160859,-99.0888214,Venustiano Carranza,CDMX
MOCTEZUMA 1A SECCION,15530,2049.315776,19.42808006,-99.10609407,Venustiano Carranza,CDMX
MOCTEZUMA 2A SECCION I,15540,2740.231865,19.43758154,-99.09442926,Venustiano Carranza,CDMX
PRIMERO DE MAYO,15540,3020.98,19.44565721,-99.10131936,Venustiano Carranza,CDMX
SANTA CRUZ AVIACION,15540,3229.051488,19.42260511,-99.09778523,Venustiano Carranza,CDMX
ROMERO RUBIO,15550,3020.98,19.44258244,-99.09660133,Venustiano Carranza,CDMX
MOCTEZUMA 2A SECCION IV,15600,2739.040868,19.4265789,-99.09792476,Venustiano Carranza,CDMX
PEON DE LOS BAOS,15620,3028.600715,19.43820337,-99.08346041,Venustiano Carranza,CDMX
EL ARENAL PTO AEREO (FRACC),15640,2872.23,19.42887942,-99.06099906,Venustiano Carranza,CDMX
CARACOL,15650,1838.924059,19.42618392,-99.06953813,Venustiano Carranza,CDMX
EL ARENAL 1A SECCION,15660,1825.24,19.42496217,-99.06358922,Venustiano Carranza,CDMX
FIVIPORT (U HAB),15669,2872.23,19.42662195,-99.06108314,Venustiano Carranza,CDMX
EL ARENAL 2A SECCION,15680,1825.24,19.42310686,-99.05706879,Venustiano Carranza,CDMX
EL ARENAL 3A SECCION,15680,1825.24,19.42545063,-99.05658197,Venustiano Carranza,CDMX
20 DE NOVIEMBRE,15700,3020.98,19.44418461,-99.10885679,Venustiano Carranza,CDMX
CUCHILLA PANTITLAN,15700,2587.249128,19.42206761,-99.06302764,Venustiano Carranza,CDMX
INDUSTRIAL PUERTO AEREO (FRACC),15710,3259.221081,19.42181728,-99.09317553,Venustiano Carranza,CDMX
IGNACIO ZARAGOZA II,15720,1971.882883,19.41182256,-99.08784142,Venustiano Carranza,CDMX
MORELOS I,15720,3372.002527,19.44477831,-99.12305241,Venustiano Carranza,CDMX
AVIACION CIVIL,15740,2051.111027,19.41424763,-99.07796777,Venustiano Carranza,CDMX
CUATRO ARBOLES,15740,2057.306201,19.41704064,-99.08415784,Venustiano Carranza,CDMX
MOCTEZUMA 2A SECCION II,15740,2762.684074,19.43164809,-99.09413187,Venustiano Carranza,CDMX
AVIACION CIVIL (AMPL),15750,2455.560442,19.41069124,-99.07730859,Venustiano Carranza,CDMX
5TO TRAMO DE 20 DE NOVIEMBRE,15800,3020.98,19.44949179,-99.10693227,Venustiano Carranza,CDMX
CENTRO I,15810,4835.628607,19.43332475,-99.12256685,Venustiano Carranza,CDMX
MERCED BALBUENA,15810,4014.01822,19.41978227,-99.12375343,Venustiano Carranza,CDMX
MAGDALENA  MIXHUCA,15860,3077.712682,19.40724312,-99.11809437,Venustiano Carranza,CDMX
ARTES GRAFICAS,15870,4173.951542,19.41127225,-99.12610513,Venustiano Carranza,CDMX
JAMAICA,15870,3911.228133,19.40695731,-99.12485109,Venustiano Carranza,CDMX
SEVILLA,15870,3112.961309,19.41065751,-99.12321421,Venustiano Carranza,CDMX
AARON SAENZ,15894,3062.57,19.41303713,-99.12313378,Venustiano Carranza,CDMX
7 DE JULIO (AMPL),15900,1900.278478,19.43081116,-99.10999915,Venustiano Carranza,CDMX
CANDELARIA DELOS PATOS (U HAB),15900,4700.64,19.42954393,-99.12170074,Venustiano Carranza,CDMX
CENTRO II,15900,4771.525779,19.42649499,-99.12186725,Venustiano Carranza,CDMX
EL ARENAL 4A SECCION,15900,1825.24,19.42925818,-99.0571909,Venustiano Carranza,CDMX
FEDERAL,15900,1969.591097,19.42003152,-99.08831241,Venustiano Carranza,CDMX
IGNACIO ZARAGOZA I,15900,2070.357948,19.41307844,-99.09459864,Venustiano Carranza,CDMX
JARDIN BALBUENA I,15900,2909.726906,19.42147114,-99.10521895,Venustiano Carranza,CDMX
MAGDALENA  MIXHUCA (PBLO),15900,3098.991196,19.41033651,-99.11686714,Venustiano Carranza,CDMX
MOCTEZUMA 2A SECCION III,15900,2726.04,19.43307351,-99.10215923,Venustiano Carranza,CDMX
PINO (U HAB),15900,2873.51,19.40975372,-99.09861492,Venustiano Carranza,CDMX
BAHIA (U HAB),15930,2042.49,19.41623536,-99.08335231,Venustiano Carranza,CDMX
MORELOS II,15940,3272.403381,19.44215208,-99.11909439,Venustiano Carranza,CDMX
JARDIN BALBUENA II,15950,2873.51,19.41780387,-99.11353258,Venustiano Carranza,CDMX
VIADUCTO  - BALBUENA )CONJ HAB),15950,3281.026996,19.40754566,-99.11012706,Venustiano Carranza,CDMX
EMILIANO ZAPATA (U HAB),15960,5921.31,19.43277954,-99.12013489,Venustiano Carranza,CDMX
LORENZO BOTURINI,15960,3943.998204,19.41634105,-99.1251438,Venustiano Carranza,CDMX
ADOLFO LOPEZ MATEOS,15970,2128.557314,19.42177275,-99.07150866,Venustiano Carranza,CDMX
AERONAUTICA MILITAR,15970,3062.57,19.42001205,-99.11591294,Venustiano Carranza,CDMX
24 DE ABRIL,15980,3062.57,19.41598745,-99.11662069,Venustiano Carranza,CDMX
EL PARQUE,15980,2731.596183,19.41713759,-99.11913352,Venustiano Carranza,CDMX
ALVARO OBREGON,15990,3062.57,19.41284667,-99.11870734,Venustiano Carranza,CDMX
JARDIN BALBUENA III,15990,2873.582898,19.41402202,-99.10489203,Venustiano Carranza,CDMX
KENNEDY (U HAB),15990,2873.51,19.41993157,-99.11123654,Venustiano Carranza,CDMX
PUEBLA,15020,1933.881354,19.40931237,-99.08240591,Venustiano Carranza,CDMX
AMPL CARACOL,15650,1825.24,19.42880346,-99.06818536,Venustiano Carranza,CDMX
